$GPGGA,235820.207,3328.6436,N,11205.3079,W,1,04,2.25,176.7,M,-26.6,M,,*5B
$GPGGA,235822.000,3328.6459,N,11205.3068,W,1,04,2.25,177.0,M,-26.6,M,,*53
$GPGGA,235823.000,3328.6465,N,11205.3065,W,1,04,2.25,177.0,M,-26.6,M,,*50
$GPGGA,235824.000,3328.6482,N,11205.3057,W,1,04,2.25,177.3,M,-26.6,M,,*5C
$GPGGA,235825.000,3328.6507,N,11205.3046,W,1,04,2.25,177.6,M,-26.6,M,,*54
$GPGGA,235826.000,3328.6841,N,11205.2905,W,1,04,2.25,182.8,M,-26.6,M,,*53
$GPGGA,235827.000,3328.6852,N,11205.2902,W,1,04,2.25,183.1,M,-26.6,M,,*5F
$GPGGA,235828.000,3328.6864,N,11205.2897,W,1,04,2.25,183.5,M,-26.6,M,,*5C
$GPGGA,235829.000,3328.6876,N,11205.2893,W,1,04,2.25,183.8,M,-26.6,M,,*57
$GPGGA,235830.000,3328.6890,N,11205.2886,W,1,04,2.25,184.2,M,-26.6,M,,*5E
$GPGGA,235831.000,3328.6904,N,11205.2880,W,1,04,2.25,184.5,M,-26.6,M,,*52
$GPGGA,235832.000,3328.6919,N,11205.2874,W,1,04,2.25,184.9,M,-26.6,M,,*5A
$GPGGA,235833.000,3328.6930,N,11205.2869,W,1,04,4.87,185.2,M,-26.6,M,,*58
$GPGGA,235834.000,3328.6938,N,11205.2867,W,1,04,4.88,185.6,M,-26.6,M,,*52
$GPGGA,235835.000,3328.6946,N,11205.2865,W,1,04,2.25,186.0,M,-26.6,M,,*5C
$GPGGA,235836.000,3328.6955,N,11205.2863,W,1,04,2.25,186.4,M,-26.6,M,,*5F
$GPGGA,235837.000,3328.6963,N,11205.2861,W,1,04,2.25,186.8,M,-26.6,M,,*55
$GPGGA,235838.000,3328.6974,N,11205.2854,W,1,04,2.25,187.2,M,-26.6,M,,*51
$GPGGA,235839.000,3328.6984,N,11205.2849,W,1,04,2.25,187.5,M,-26.6,M,,*54
$GPGGA,235840.000,3328.6992,N,11205.2846,W,1,04,2.25,188.0,M,-26.6,M,,*58
$GPGGA,235841.000,3328.7004,N,11205.2840,W,1,04,2.25,188.3,M,-26.6,M,,*5B
$GPGGA,235842.000,3328.7016,N,11205.2834,W,1,04,2.25,188.7,M,-26.6,M,,*5C
$GPGGA,235843.000,3328.7028,N,11205.2830,W,1,04,2.25,189.0,M,-26.6,M,,*52
$GPGGA,235844.000,3328.7041,N,11205.2824,W,1,04,2.25,189.4,M,-26.6,M,,*5B
$GPGGA,235845.000,3328.7052,N,11205.2822,W,1,04,2.25,189.7,M,-26.6,M,,*5D
$GPGGA,235846.000,3328.7063,N,11205.2817,W,1,04,2.25,190.1,M,-26.6,M,,*54
$GPGGA,235847.000,3328.7072,N,11205.2813,W,1,04,2.25,190.5,M,-26.6,M,,*55
$GPGGA,235848.000,3328.7084,N,11205.2808,W,1,04,2.25,190.9,M,-26.6,M,,*55
$GPGGA,235849.000,3328.7096,N,11205.2803,W,1,04,4.90,191.3,M,-26.6,M,,*5F
$GPGGA,235850.000,3328.7107,N,11205.2801,W,1,04,2.25,191.6,M,-26.6,M,,*51
$GPGGA,235851.000,3328.7117,N,11205.2799,W,1,04,4.90,192.0,M,-26.6,M,,*52
$GPGGA,235852.000,3328.7126,N,11205.2799,W,1,04,4.90,192.4,M,-26.6,M,,*57
$GPGGA,235853.000,3328.7137,N,11205.2796,W,1,04,2.25,192.8,M,-26.6,M,,*5D
$GPGGA,235854.000,3328.7148,N,11205.2792,W,1,04,2.25,193.2,M,-26.6,M,,*5D
$GPGGA,235855.000,3328.7157,N,11205.2789,W,1,04,2.25,193.6,M,-26.6,M,,*5C
$GPGGA,235856.000,3328.7166,N,11205.2785,W,1,04,2.25,194.0,M,-26.6,M,,*50
$GPGGA,235857.000,3328.7174,N,11205.2783,W,1,04,2.24,194.4,M,-26.6,M,,*51
$GPGGA,235858.000,3328.7182,N,11205.2781,W,1,04,2.24,194.8,M,-26.6,M,,*59
$GPGGA,235859.000,3328.7190,N,11205.2778,W,1,04,2.24,195.3,M,-26.6,M,,*57
$GPGGA,235900.000,3328.7199,N,11205.2773,W,1,04,2.24,195.7,M,-26.6,M,,*5C
$GPGGA,235901.000,3328.7208,N,11205.2769,W,1,04,2.24,196.1,M,-26.6,M,,*58
$GPGGA,235902.000,3328.7204,N,11205.2771,W,1,04,2.24,196.2,M,-26.6,M,,*5D
$GPGGA,235903.000,3328.7200,N,11205.2772,W,1,04,2.24,196.3,M,-26.6,M,,*5A
$GPGGA,235904.000,3328.7209,N,11205.2768,W,1,04,2.24,196.7,M,-26.6,M,,*5B
$GPGGA,235905.000,3328.7213,N,11205.2766,W,1,04,2.24,197.2,M,-26.6,M,,*5B
$GPGGA,235906.000,3328.7218,N,11205.2765,W,1,04,2.24,197.6,M,-26.6,M,,*54
$GPGGA,235907.000,3328.7225,N,11205.2763,W,1,04,2.24,198.1,M,-26.6,M,,*55
$GPGGA,235908.000,3328.7230,N,11205.2762,W,1,04,2.24,198.6,M,-26.6,M,,*58
$GPGGA,235909.000,3328.7236,N,11205.2761,W,1,04,2.24,199.1,M,-26.6,M,,*5A
$GPGGA,235910.000,3328.7243,N,11205.2759,W,1,04,2.24,199.5,M,-26.6,M,,*5F
$GPGGA,235911.000,3328.7253,N,11205.2756,W,1,04,2.24,199.9,M,-26.6,M,,*5C
$GPGGA,235912.000,3328.7263,N,11205.2751,W,1,04,2.24,200.3,M,-26.6,M,,*52
$GPGGA,235913.000,3328.7270,N,11205.2752,W,1,04,4.93,200.8,M,-26.6,M,,*53
$GPGGA,235914.000,3328.7279,N,11205.2749,W,1,04,2.24,201.2,M,-26.6,M,,*56
$GPGGA,235915.000,3328.7288,N,11205.2747,W,1,04,2.24,201.5,M,-26.6,M,,*50
$GPGGA,235916.000,3328.7299,N,11205.2744,W,1,04,2.24,201.9,M,-26.6,M,,*5C
$GPGGA,235917.000,3328.7308,N,11205.2742,W,1,04,2.24,202.3,M,-26.6,M,,*5B
$GPGGA,235918.000,3328.7316,N,11205.2740,W,1,04,2.24,202.7,M,-26.6,M,,*5D
$GPGGA,235919.000,3328.7326,N,11205.2738,W,1,04,2.24,203.1,M,-26.6,M,,*57
$GPGGA,235920.000,3328.7335,N,11205.2736,W,1,04,2.24,203.4,M,-26.6,M,,*54
$GPGGA,235921.000,3328.7335,N,11205.2738,W,1,04,2.24,203.5,M,-26.6,M,,*5A
$GPGGA,235922.000,3328.7334,N,11205.2739,W,1,04,2.24,203.6,M,-26.6,M,,*5A
$GPGGA,235923.000,3328.7332,N,11205.2741,W,1,04,2.24,203.7,M,-26.6,M,,*53
$GPGGA,235924.000,3328.7341,N,11205.2740,W,1,04,2.24,204.1,M,-26.6,M,,*50
$GPGGA,235925.000,3328.7338,N,11205.2743,W,1,04,4.95,204.2,M,-26.6,M,,*53
$GPGGA,235926.000,3328.7347,N,11205.2741,W,1,04,2.24,204.6,M,-26.6,M,,*52
$GPGGA,235927.000,3328.7357,N,11205.2738,W,1,04,2.24,205.0,M,-26.6,M,,*5B
$GPGGA,235928.000,3328.7355,N,11205.2739,W,1,04,2.24,205.1,M,-26.6,M,,*56
$GPGGA,235929.000,3328.7353,N,11205.2741,W,1,04,2.24,205.2,M,-26.6,M,,*5D
$GPGGA,235930.000,3328.7364,N,11205.2738,W,1,04,2.24,205.6,M,-26.6,M,,*5B
$GPGGA,235931.000,3328.7373,N,11205.2734,W,1,04,2.24,206.0,M,-26.6,M,,*55
$GPGGA,235932.000,3328.7381,N,11205.2733,W,1,04,4.96,206.5,M,-26.6,M,,*56
$GPGGA,235933.000,3328.7403,N,11205.2724,W,1,05,1.42,207.0,M,-26.6,M,,*55
$GPGGA,235934.000,3328.7424,N,11205.2715,W,1,05,1.42,207.4,M,-26.6,M,,*51
$GPGGA,235935.000,3328.7438,N,11205.2709,W,1,05,1.42,207.8,M,-26.6,M,,*5C
$GPGGA,235936.000,3328.7450,N,11205.2706,W,1,05,1.45,208.2,M,-26.6,M,,*5C
$GPGGA,235937.000,3328.7457,N,11205.2703,W,1,05,1.42,208.7,M,-26.6,M,,*5D
$GPGGA,235938.000,3328.7464,N,11205.2701,W,1,05,1.42,209.1,M,-26.6,M,,*57
$GPGGA,235939.000,3328.7472,N,11205.2700,W,1,05,1.42,209.6,M,-26.6,M,,*57
$GPGGA,235940.000,3328.7479,N,11205.2698,W,1,05,1.42,210.1,M,-26.6,M,,*5D
$GPGGA,235941.000,3328.7484,N,11205.2698,W,1,05,1.42,210.5,M,-26.6,M,,*5A
$GPGGA,235942.000,3328.7486,N,11205.2699,W,1,05,1.42,211.1,M,-26.6,M,,*5F
$GPGGA,235943.000,3328.7487,N,11205.2699,W,1,05,1.42,211.6,M,-26.6,M,,*58
$GPGGA,235944.000,3328.7490,N,11205.2700,W,1,05,1.42,212.1,M,-26.6,M,,*5C
$GPGGA,235945.000,3328.7493,N,11205.2701,W,1,05,1.42,212.6,M,-26.6,M,,*58
$GPGGA,235946.000,3328.7497,N,11205.2705,W,1,05,1.42,213.2,M,-26.6,M,,*5E
$GPGGA,235947.000,3328.7502,N,11205.2707,W,1,05,1.42,213.7,M,-26.6,M,,*55
$GPGGA,235948.000,3328.7505,N,11205.2709,W,1,05,1.42,214.3,M,-26.6,M,,*50
$GPGGA,235949.000,3328.7508,N,11205.2711,W,1,05,1.42,214.7,M,-26.6,M,,*51
$GPGGA,235950.000,3328.7511,N,11205.2711,W,1,05,1.42,215.3,M,-26.6,M,,*54
$GPGGA,235951.000,3328.7514,N,11205.2712,W,1,05,1.42,215.8,M,-26.6,M,,*58
$GPGGA,235952.000,3328.7518,N,11205.2712,W,1,05,1.42,216.3,M,-26.6,M,,*5F
$GPGGA,235953.000,3328.7521,N,11205.2712,W,1,05,1.42,216.7,M,-26.6,M,,*50
$GPGGA,235954.000,3328.7524,N,11205.2712,W,1,05,1.42,217.2,M,-26.6,M,,*56
$GPGGA,235955.000,3328.7526,N,11205.2711,W,1,05,1.42,217.7,M,-26.6,M,,*53
$GPGGA,235956.000,3328.7530,N,11205.2711,W,1,05,1.42,218.1,M,-26.6,M,,*5E
$GPGGA,235957.000,3328.7533,N,11205.2711,W,1,05,1.42,218.5,M,-26.6,M,,*58
$GPGGA,235958.000,3328.7538,N,11205.2708,W,1,05,1.42,218.9,M,-26.6,M,,*58
$GPGGA,235959.000,3328.7542,N,11205.2707,W,1,05,1.42,219.3,M,-26.6,M,,*50
$GPGGA,000000.000,3328.7546,N,11205.2707,W,1,05,1.42,219.6,M,-26.6,M,,*50
$GPGGA,000001.000,3328.7551,N,11205.2709,W,1,05,1.42,219.9,M,-26.6,M,,*56
$GPGGA,000002.000,3328.7556,N,11205.2708,W,1,05,1.42,220.4,M,-26.6,M,,*54
$GPGGA,000003.000,3328.7559,N,11205.2708,W,2,05,1.42,220.8,M,-26.6,M,0000,0000*55
$GPGGA,000004.000,3328.7562,N,11205.2708,W,2,05,1.45,221.3,M,-26.6,M,0000,0000*57
$GPGGA,000005.000,3328.7566,N,11205.2708,W,2,05,1.42,221.8,M,-26.6,M,0000,0000*5E
$GPGGA,000006.000,3328.7570,N,11205.2708,W,2,05,1.42,222.3,M,-26.6,M,0000,0000*52
$GPGGA,000007.000,3328.7573,N,11205.2709,W,2,05,1.42,222.8,M,-26.6,M,0000,0000*5A
$GPGGA,000008.000,3328.7577,N,11205.2708,W,2,05,1.42,223.4,M,-26.6,M,0000,0000*5D
$GPGGA,000009.000,3328.7581,N,11205.2706,W,2,05,1.42,223.8,M,-26.6,M,0000,0000*57
$GPGGA,000010.000,3328.7584,N,11205.2706,W,2,05,1.42,224.3,M,-26.6,M,0000,0000*56
$GPGGA,000011.000,3328.7588,N,11205.2705,W,2,05,1.42,224.7,M,-26.6,M,0000,0000*5C
$GPGGA,000012.000,3328.7593,N,11205.2705,W,2,05,1.42,225.2,M,-26.6,M,0000,0000*51
$GPGGA,000013.000,3328.7596,N,11205.2703,W,2,05,1.42,225.6,M,-26.6,M,0000,0000*57
$GPGGA,000014.000,3328.7600,N,11205.2703,W,2,05,1.42,226.1,M,-26.6,M,0000,0000*58
$GPGGA,000015.000,3328.7603,N,11205.2703,W,2,05,1.42,226.6,M,-26.6,M,0000,0000*5D
$GPGGA,000016.000,3328.7608,N,11205.2702,W,2,05,1.42,227.1,M,-26.6,M,0000,0000*52
$GPGGA,000017.000,3328.7612,N,11205.2702,W,2,05,1.42,227.7,M,-26.6,M,0000,0000*5E
$GPGGA,000018.000,3328.7615,N,11205.2700,W,2,05,1.42,228.1,M,-26.6,M,0000,0000*5D
$GPGGA,000019.000,3328.7620,N,11205.2700,W,2,05,1.42,228.7,M,-26.6,M,0000,0000*5C
$GPGGA,000020.000,3328.7624,N,11205.2699,W,2,05,1.42,229.2,M,-26.6,M,0000,0000*57
$GPGGA,000021.000,3328.7628,N,11205.2698,W,2,05,1.42,229.8,M,-26.6,M,0000,0000*51
$GPGGA,000022.000,3328.7632,N,11205.2699,W,2,05,1.42,230.3,M,-26.6,M,0000,0000*5B
$GPGGA,000023.000,3328.7636,N,11205.2699,W,2,05,1.42,230.7,M,-26.6,M,0000,0000*5A
$GPGGA,000024.000,3328.7640,N,11205.2701,W,2,05,1.42,231.3,M,-26.6,M,0000,0000*59
$GPGGA,000025.000,3328.7644,N,11205.2701,W,2,05,1.42,231.9,M,-26.6,M,0000,0000*56
$GPGGA,000026.000,3328.7648,N,11205.2700,W,2,05,1.42,232.5,M,-26.6,M,0000,0000*57
$GPGGA,000027.000,3328.7652,N,11205.2698,W,2,05,1.42,233.0,M,-26.6,M,0000,0000*59
$GPGGA,000028.000,3328.7658,N,11205.2696,W,2,05,1.42,233.5,M,-26.6,M,0000,0000*57
$GPGGA,000029.000,3328.7664,N,11205.2692,W,2,05,1.42,234.0,M,-26.6,M,0000,0000*5F
$GPGGA,000030.000,3328.7670,N,11205.2690,W,2,05,1.42,234.6,M,-26.6,M,0000,0000*56
$GPGGA,000031.000,3328.7675,N,11205.2689,W,2,05,1.42,235.1,M,-26.6,M,0000,0000*5C
$GPGGA,000032.000,3328.7678,N,11205.2690,W,2,05,1.42,235.7,M,-26.6,M,0000,0000*5C
$GPGGA,000033.000,3328.7681,N,11205.2692,W,2,05,1.42,236.2,M,-26.6,M,0000,0000*5F
$GPGGA,000034.000,3328.7686,N,11205.2691,W,2,05,1.42,236.9,M,-26.6,M,0000,0000*57
$GPGGA,000035.000,3328.7690,N,11205.2691,W,2,05,1.42,237.4,M,-26.6,M,0000,0000*5D
$GPGGA,000036.000,3328.7692,N,11205.2693,W,2,05,1.42,237.9,M,-26.6,M,0000,0000*53
$GPGGA,000037.000,3328.7695,N,11205.2693,W,2,05,1.42,238.4,M,-26.6,M,0000,0000*57
$GPGGA,000038.000,3328.7700,N,11205.2693,W,2,05,1.42,239.0,M,-26.6,M,0000,0000*50
$GPGGA,000039.000,3328.7703,N,11205.2692,W,2,05,1.45,239.5,M,-26.6,M,0000,0000*51
$GPGGA,000040.000,3328.7708,N,11205.2693,W,2,05,1.42,240.0,M,-26.6,M,0000,0000*59
$GPGGA,000041.000,3328.7712,N,11205.2692,W,2,05,1.42,240.6,M,-26.6,M,0000,0000*54
$GPGGA,000042.000,3328.7716,N,11205.2691,W,2,05,1.42,241.1,M,-26.6,M,0000,0000*56
$GPGGA,000043.000,3328.7720,N,11205.2691,W,2,05,1.42,241.6,M,-26.6,M,0000,0000*55
$GPGGA,000044.000,3328.7724,N,11205.2689,W,2,05,1.42,242.1,M,-26.6,M,0000,0000*5B
$GPGGA,000045.000,3328.7728,N,11205.2688,W,2,05,1.45,242.5,M,-26.6,M,0000,0000*54
$GPGGA,000046.000,3328.7731,N,11205.2686,W,2,05,1.42,243.0,M,-26.6,M,0000,0000*52
$GPGGA,000047.000,3328.7733,N,11205.2684,W,2,05,1.42,243.5,M,-26.6,M,0000,0000*56
$GPGGA,000048.000,3328.7737,N,11205.2683,W,2,05,1.42,244.0,M,-26.6,M,0000,0000*58
$GPGGA,000049.000,3328.7740,N,11205.2683,W,2,05,1.42,244.5,M,-26.6,M,0000,0000*5C
$GPGGA,000050.000,3328.7744,N,11205.2681,W,2,05,1.42,245.0,M,-26.6,M,0000,0000*56
$GPGGA,000051.000,3328.7748,N,11205.2679,W,2,05,1.42,245.4,M,-26.6,M,0000,0000*58
$GPGGA,000052.000,3328.7754,N,11205.2678,W,2,05,1.43,245.8,M,-26.6,M,0000,0000*5A
$GPGGA,000053.000,3328.7760,N,11205.2679,W,2,05,1.42,246.2,M,-26.6,M,0000,0000*55
$GPGGA,000054.000,3328.7763,N,11205.2676,W,2,05,1.45,246.7,M,-26.6,M,0000,0000*5C
$GPGGA,000055.000,3328.7766,N,11205.2676,W,2,05,1.42,247.2,M,-26.6,M,0000,0000*5B
$GPGGA,000056.000,3328.7770,N,11205.2674,W,2,05,1.42,247.6,M,-26.6,M,0000,0000*59
$GPGGA,000057.000,3328.7771,N,11205.2674,W,2,05,1.42,247.8,M,-26.6,M,0000,0000*57
$GPGGA,000058.000,3328.7772,N,11205.2674,W,2,05,1.42,248.0,M,-26.6,M,0000,0000*5C
$GPGGA,000059.000,3328.7775,N,11205.2673,W,2,05,1.42,248.1,M,-26.6,M,0000,0000*5C
$GPGGA,000100.000,3328.7776,N,11205.2673,W,2,05,1.42,248.3,M,-26.6,M,0000,0000*50
$GPGGA,000101.000,3328.7780,N,11205.2675,W,2,05,1.46,248.9,M,-26.6,M,0000,0000*50
$GPGGA,000102.000,3328.7785,N,11205.2676,W,2,05,1.42,249.3,M,-26.6,M,0000,0000*5A
$GPGGA,000103.000,3328.7793,N,11205.2673,W,2,05,1.42,249.8,M,-26.6,M,0000,0000*52
$GPGGA,000104.000,3328.7799,N,11205.2673,W,2,05,1.43,250.3,M,-26.6,M,0000,0000*5D
$GPGGA,000105.000,3328.7804,N,11205.2673,W,2,05,1.43,250.8,M,-26.6,M,0000,0000*5C
$GPGGA,000106.000,3328.7809,N,11205.2672,W,2,05,1.42,251.3,M,-26.6,M,0000,0000*58
$GPGGA,000107.000,3328.7814,N,11205.2673,W,2,05,1.43,251.8,M,-26.6,M,0000,0000*5E
$GPGGA,000108.000,3328.7818,N,11205.2671,W,2,05,1.42,252.3,M,-26.6,M,0000,0000*56
$GPGGA,000109.000,3328.7823,N,11205.2669,W,2,05,1.43,252.8,M,-26.6,M,0000,0000*5C
$GPGGA,000110.000,3328.7827,N,11205.2669,W,2,05,1.46,253.4,M,-26.6,M,0000,0000*58
$GPGGA,000111.000,3328.7832,N,11205.2668,W,2,05,1.43,254.0,M,-26.6,M,0000,0000*5A
$GPGGA,000112.000,3328.7836,N,11205.2667,W,2,05,1.43,254.6,M,-26.6,M,0000,0000*54
$GPGGA,000113.000,3328.7840,N,11205.2667,W,2,05,1.43,255.1,M,-26.6,M,0000,0000*52
$GPGGA,000114.000,3328.7844,N,11205.2664,W,2,05,1.43,255.6,M,-26.6,M,0000,0000*55
$GPGGA,000115.000,3328.7848,N,11205.2666,W,2,05,1.43,256.1,M,-26.6,M,0000,0000*5E
$GPGGA,000116.000,3328.7851,N,11205.2666,W,2,05,1.43,256.6,M,-26.6,M,0000,0000*52
$GPGGA,000117.000,3328.7854,N,11205.2665,W,2,05,1.43,257.2,M,-26.6,M,0000,0000*50
$GPGGA,000118.000,3328.7856,N,11205.2668,W,2,05,1.43,257.8,M,-26.6,M,0000,0000*5A
$GPGGA,000119.000,3328.7858,N,11205.2670,W,2,05,1.43,258.4,M,-26.6,M,0000,0000*5F
$GPGGA,000120.000,3328.7862,N,11205.2670,W,2,05,1.43,258.9,M,-26.6,M,0000,0000*51
$GPGGA,000121.000,3328.7864,N,11205.2670,W,2,05,1.43,259.4,M,-26.6,M,0000,0000*5A
$GPGGA,000122.000,3328.7868,N,11205.2670,W,2,05,1.43,259.8,M,-26.6,M,0000,0000*59
$GPGGA,000123.000,3328.7871,N,11205.2670,W,2,05,1.43,260.3,M,-26.6,M,0000,0000*51
$GPGGA,000124.000,3328.7876,N,11205.2668,W,2,05,1.43,260.8,M,-26.6,M,0000,0000*53
$GPGGA,000125.000,3328.7879,N,11205.2671,W,2,05,1.43,261.3,M,-26.6,M,0000,0000*5F
$GPGGA,000126.000,3328.7882,N,11205.2670,W,2,05,1.43,261.7,M,-26.6,M,0000,0000*5D
$GPGGA,000127.000,3328.7887,N,11205.2669,W,2,05,1.43,262.1,M,-26.6,M,0000,0000*54
$GPGGA,000128.000,3328.7892,N,11205.2669,W,2,05,1.43,262.5,M,-26.6,M,0000,0000*5B
$GPGGA,000129.000,3328.7896,N,11205.2670,W,2,05,1.43,262.9,M,-26.6,M,0000,0000*5A
$GPGGA,000130.000,3328.7900,N,11205.2671,W,2,05,1.43,263.4,M,-26.6,M,0000,0000*51
$GPGGA,000131.000,3328.7905,N,11205.2671,W,2,05,1.43,263.8,M,-26.6,M,0000,0000*59
$GPGGA,000132.000,3328.7910,N,11205.2671,W,2,05,1.43,264.3,M,-26.6,M,0000,0000*52
$GPGGA,000133.000,3328.7915,N,11205.2670,W,2,05,1.43,264.7,M,-26.6,M,0000,0000*53
$GPGGA,000134.000,3328.7920,N,11205.2671,W,2,05,1.46,265.2,M,-26.6,M,0000,0000*52
$GPGGA,000135.000,3328.7924,N,11205.2674,W,2,05,1.43,265.7,M,-26.6,M,0000,0000*52
$GPGGA,000136.000,3328.7928,N,11205.2675,W,2,05,1.43,266.1,M,-26.6,M,0000,0000*59
$GPGGA,000137.000,3328.7933,N,11205.2677,W,2,05,1.43,266.6,M,-26.6,M,0000,0000*57
$GPGGA,000138.000,3328.7938,N,11205.2682,W,2,05,1.43,267.1,M,-26.6,M,0000,0000*5F
$GPGGA,000139.000,3328.7943,N,11205.2687,W,2,05,1.43,267.6,M,-26.6,M,0000,0000*50
$GPGGA,000140.000,3328.7948,N,11205.2689,W,2,05,1.43,268.0,M,-26.6,M,0000,0000*52
$GPGGA,000141.000,3328.7953,N,11205.2689,W,2,05,1.43,268.5,M,-26.6,M,0000,0000*5C
$GPGGA,000142.000,3328.7958,N,11205.2689,W,2,05,1.43,269.0,M,-26.6,M,0000,0000*50
$GPGGA,000143.000,3328.7962,N,11205.2688,W,2,05,1.43,269.4,M,-26.6,M,0000,0000*5D
$GPGGA,000144.000,3328.7967,N,11205.2687,W,2,05,1.43,269.8,M,-26.6,M,0000,0000*5C
$GPGGA,000145.000,3328.7972,N,11205.2685,W,2,05,1.43,270.2,M,-26.6,M,0000,0000*59
$GPGGA,000146.000,3328.7977,N,11205.2684,W,2,05,1.43,270.6,M,-26.6,M,0000,0000*5A
$GPGGA,000147.000,3328.7981,N,11205.2684,W,2,05,1.43,271.0,M,-26.6,M,0000,0000*55
$GPGGA,000148.000,3328.7987,N,11205.2682,W,2,05,1.43,271.4,M,-26.6,M,0000,0000*5E
$GPGGA,000149.000,3328.7992,N,11205.2679,W,2,05,1.43,271.9,M,-26.6,M,0000,0000*52
$GPGGA,000150.000,3328.7997,N,11205.2679,W,2,05,1.43,272.4,M,-26.6,M,0000,0000*51
$GPGGA,000151.000,3328.8001,N,11205.2681,W,2,05,1.43,273.0,M,-26.6,M,0000,0000*5B
$GPGGA,000152.000,3328.8005,N,11205.2682,W,2,05,1.43,273.6,M,-26.6,M,0000,0000*59
$GPGGA,000153.000,3328.8009,N,11205.2683,W,2,05,1.43,274.1,M,-26.6,M,0000,0000*55
$GPGGA,000154.000,3328.8013,N,11205.2683,W,2,05,1.43,274.7,M,-26.6,M,0000,0000*5F
$GPGGA,000155.000,3328.8018,N,11205.2682,W,2,05,1.43,275.3,M,-26.6,M,0000,0000*51
$GPGGA,000156.000,3328.8022,N,11205.2682,W,2,05,1.43,275.8,M,-26.6,M,0000,0000*50
$GPGGA,000157.000,3328.8026,N,11205.2683,W,2,05,1.43,276.3,M,-26.6,M,0000,0000*5C
$GPGGA,000158.000,3328.8032,N,11205.2682,W,2,05,1.43,276.8,M,-26.6,M,0000,0000*5C
$GPGGA,000159.000,3328.8038,N,11205.2682,W,2,05,1.43,277.3,M,-26.6,M,0000,0000*5D
$GPGGA,000200.000,3328.8042,N,11205.2683,W,2,05,1.43,277.8,M,-26.6,M,0000,0000*55
$GPGGA,000201.000,3328.8047,N,11205.2683,W,2,05,1.43,278.3,M,-26.6,M,0000,0000*55
$GPGGA,000202.000,3328.8053,N,11205.2685,W,2,05,1.43,278.8,M,-26.6,M,0000,0000*5E
$GPGGA,000203.000,3328.8058,N,11205.2685,W,2,05,1.43,279.3,M,-26.6,M,0000,0000*5E
$GPGGA,000204.000,3328.8064,N,11205.2688,W,2,05,1.43,279.8,M,-26.6,M,0000,0000*50
$GPGGA,000205.000,3328.8068,N,11205.2689,W,2,05,1.43,280.3,M,-26.6,M,0000,0000*51
$GPGGA,000206.000,3328.8073,N,11205.2690,W,2,05,1.43,280.8,M,-26.6,M,0000,0000*5B
$GPGGA,000207.000,3328.8078,N,11205.2691,W,2,05,1.43,281.4,M,-26.6,M,0000,0000*5D
$GPGGA,000208.000,3328.8084,N,11205.2690,W,2,05,1.43,281.8,M,-26.6,M,0000,0000*5C
$GPGGA,000209.000,3328.8089,N,11205.2690,W,2,05,1.43,282.3,M,-26.6,M,0000,0000*58
$GPGGA,000210.000,3328.8093,N,11205.2690,W,2,05,1.43,282.7,M,-26.6,M,0000,0000*5F
$GPGGA,000211.000,3328.8099,N,11205.2692,W,2,05,1.43,283.2,M,-26.6,M,0000,0000*52
$GPGGA,000212.000,3328.8105,N,11205.2692,W,2,05,1.43,283.7,M,-26.6,M,0000,0000*50
$GPGGA,000213.000,3328.8110,N,11205.2690,W,2,05,1.43,284.1,M,-26.6,M,0000,0000*56
$GPGGA,000214.000,3328.8116,N,11205.2690,W,2,05,1.43,284.5,M,-26.6,M,0000,0000*53
$GPGGA,000215.000,3328.8123,N,11205.2688,W,2,05,1.43,285.0,M,-26.6,M,0000,0000*59
$GPGGA,000216.000,3328.8128,N,11205.2687,W,2,05,1.46,285.4,M,-26.6,M,0000,0000*5F
$GPGGA,000217.000,3328.8133,N,11205.2685,W,2,05,1.43,285.8,M,-26.6,M,0000,0000*5F
$GPGGA,000218.000,3328.8138,N,11205.2684,W,2,05,1.43,286.2,M,-26.6,M,0000,0000*53
$GPGGA,000219.000,3328.8143,N,11205.2681,W,2,05,1.43,286.6,M,-26.6,M,0000,0000*5F
$GPGGA,000220.000,3328.8149,N,11205.2683,W,2,05,1.43,287.0,M,-26.6,M,0000,0000*5A
$GPGGA,000221.000,3328.8154,N,11205.2680,W,2,05,1.43,287.4,M,-26.6,M,0000,0000*50
$GPGGA,000222.000,3328.8159,N,11205.2680,W,2,05,1.43,287.9,M,-26.6,M,0000,0000*53
$GPGGA,000223.000,3328.8167,N,11205.2680,W,2,05,1.43,288.4,M,-26.6,M,0000,0000*5D
$GPGGA,000224.000,3328.8172,N,11205.2679,W,2,05,1.43,288.8,M,-26.6,M,0000,0000*54
$GPGGA,000225.000,3328.8176,N,11205.2678,W,2,05,1.43,289.3,M,-26.6,M,0000,0000*5A
$GPGGA,000226.000,3328.8181,N,11205.2675,W,2,05,1.43,289.8,M,-26.6,M,0000,0000*57
$GPGGA,000227.000,3328.8186,N,11205.2673,W,2,05,1.43,290.3,M,-26.6,M,0000,0000*54
$GPGGA,000228.000,3328.8192,N,11205.2670,W,2,05,1.43,290.7,M,-26.6,M,0000,0000*59
$GPGGA,000229.000,3328.8197,N,11205.2668,W,2,05,1.46,291.1,M,-26.6,M,0000,0000*56
$GPGGA,000230.000,3328.8197,N,11205.2669,W,2,05,1.43,291.2,M,-26.6,M,0000,0000*59
$GPGGA,000231.000,3328.8198,N,11205.2667,W,2,05,1.43,291.8,M,-26.6,M,0000,0000*53
$GPGGA,000232.000,3328.8202,N,11205.2665,W,2,05,1.43,292.3,M,-26.6,M,0000,0000*5A
$GPGGA,000233.000,3328.8207,N,11205.2664,W,2,05,1.43,292.8,M,-26.6,M,0000,0000*54
$GPGGA,000234.000,3328.8212,N,11205.2662,W,2,05,1.43,293.3,M,-26.6,M,0000,0000*5B
$GPGGA,000235.000,3328.8216,N,11205.2662,W,2,05,1.43,293.8,M,-26.6,M,0000,0000*55
$GPGGA,000236.000,3328.8221,N,11205.2663,W,2,05,1.43,294.2,M,-26.6,M,0000,0000*5E
$GPGGA,000237.000,3328.8225,N,11205.2663,W,2,05,1.43,294.6,M,-26.6,M,0000,0000*5F
$GPGGA,000238.000,3328.8229,N,11205.2663,W,2,05,1.43,295.0,M,-26.6,M,0000,0000*5B
$GPGGA,000239.000,3328.8233,N,11205.2665,W,2,05,1.43,295.4,M,-26.6,M,0000,0000*53
$GPGGA,000240.000,3328.8233,N,11205.2666,W,2,05,1.43,295.5,M,-26.6,M,0000,0000*5F
$GPGGA,000241.000,3328.8233,N,11205.2667,W,2,05,1.43,295.6,M,-26.6,M,0000,0000*5C
$GPGGA,000242.000,3328.8233,N,11205.2667,W,2,05,1.43,295.7,M,-26.6,M,0000,0000*5E
$GPGGA,000243.000,3328.8238,N,11205.2668,W,2,05,1.43,296.2,M,-26.6,M,0000,0000*5D
$GPGGA,000244.000,3328.8244,N,11205.2667,W,2,05,1.47,296.6,M,-26.6,M,0000,0000*5E
$GPGGA,000245.000,3328.8248,N,11205.2670,W,2,05,1.47,297.2,M,-26.6,M,0000,0000*50
$GPGGA,000246.000,3328.8251,N,11205.2671,W,2,05,1.43,297.7,M,-26.6,M,0000,0000*5B
$GPGGA,000247.000,3328.8255,N,11205.2672,W,2,05,1.43,298.3,M,-26.6,M,0000,0000*56
$GPGGA,000248.000,3328.8259,N,11205.2672,W,2,05,1.43,298.9,M,-26.6,M,0000,0000*5F
$GPGGA,000249.000,3328.8262,N,11205.2675,W,2,05,1.43,299.5,M,-26.6,M,0000,0000*5C
$GPGGA,000250.000,3328.8266,N,11205.2677,W,2,05,1.43,300.0,M,-26.6,M,0000,0000*56
$GPGGA,000251.000,3328.8271,N,11205.2676,W,2,05,1.43,300.6,M,-26.6,M,0000,0000*56
$GPGGA,000252.000,3328.8276,N,11205.2675,W,2,05,1.43,301.0,M,-26.6,M,0000,0000*56
$GPGGA,000253.000,3328.8280,N,11205.2674,W,2,05,1.43,301.5,M,-26.6,M,0000,0000*5A
$GPGGA,000254.000,3328.8285,N,11205.2673,W,2,05,1.43,302.0,M,-26.6,M,0000,0000*59
$GPGGA,000255.000,3328.8289,N,11205.2671,W,2,05,1.43,302.4,M,-26.6,M,0000,0000*52
$GPGGA,000256.000,3328.8292,N,11205.2670,W,2,05,1.43,302.9,M,-26.6,M,0000,0000*57
$GPGGA,000257.000,3328.8294,N,11205.2672,W,2,05,1.43,303.5,M,-26.6,M,0000,0000*5F
$GPGGA,000258.000,3328.8297,N,11205.2670,W,2,05,1.43,303.9,M,-26.6,M,0000,0000*5D
$GPGGA,000259.000,3328.8301,N,11205.2669,W,2,05,1.43,304.3,M,-26.6,M,0000,0000*57
$GPGGA,000300.000,3328.8306,N,11205.2669,W,2,05,1.43,304.7,M,-26.6,M,0000,0000*59
$GPGGA,000301.000,3328.8307,N,11205.2671,W,2,05,1.43,304.8,M,-26.6,M,0000,0000*5F
$GPGGA,000302.000,3328.8311,N,11205.2671,W,2,05,1.43,305.2,M,-26.6,M,0000,0000*50
$GPGGA,000303.000,3328.8316,N,11205.2671,W,2,05,1.43,305.6,M,-26.6,M,0000,0000*52
$GPGGA,000304.000,3328.8320,N,11205.2671,W,2,05,1.43,305.9,M,-26.6,M,0000,0000*5F
$GPGGA,000305.000,3328.8326,N,11205.2670,W,2,05,1.43,306.3,M,-26.6,M,0000,0000*50
$GPGGA,000306.000,3328.8331,N,11205.2669,W,2,05,1.43,306.8,M,-26.6,M,0000,0000*56
$GPGGA,000307.000,3328.8335,N,11205.2670,W,2,05,1.43,307.2,M,-26.6,M,0000,0000*50
$GPGGA,000308.000,3328.8340,N,11205.2669,W,2,05,1.43,307.6,M,-26.6,M,0000,0000*51
$GPGGA,000309.000,3328.8344,N,11205.2667,W,2,05,1.43,308.0,M,-26.6,M,0000,0000*53
$GPGGA,000310.000,3328.8344,N,11205.2669,W,2,05,1.43,308.0,M,-26.6,M,0000,0000*55
$GPGGA,000311.000,3328.8348,N,11205.2668,W,2,05,1.43,308.3,M,-26.6,M,0000,0000*5A
$GPGGA,000312.000,3328.8353,N,11205.2667,W,2,05,1.43,308.7,M,-26.6,M,0000,0000*58
$GPGGA,000313.000,3328.8358,N,11205.2665,W,2,05,1.47,309.0,M,-26.6,M,0000,0000*52
$GPGGA,000314.000,3328.8362,N,11205.2664,W,2,05,1.47,309.3,M,-26.6,M,0000,0000*5E
$GPGGA,000315.000,3328.8363,N,11205.2663,W,2,05,1.43,309.3,M,-26.6,M,0000,0000*5D
$GPGGA,000316.000,3328.8362,N,11205.2659,W,2,05,1.43,309.4,M,-26.6,M,0000,0000*51
$GPGGA,000317.000,3328.8366,N,11205.2658,W,2,05,1.43,309.7,M,-26.6,M,0000,0000*56
$GPGGA,000318.000,3328.8372,N,11205.2657,W,2,05,1.43,310.1,M,-26.6,M,0000,0000*5D
$GPGGA,000319.000,3328.8377,N,11205.2655,W,2,05,1.43,310.3,M,-26.6,M,0000,0000*59
$GPGGA,000320.000,3328.8383,N,11205.2655,W,2,05,1.43,310.6,M,-26.6,M,0000,0000*5D
$GPGGA,000321.000,3328.8389,N,11205.2655,W,2,05,1.43,311.0,M,-26.6,M,0000,0000*51
$GPGGA,000322.000,3328.8394,N,11205.2655,W,2,05,1.47,311.4,M,-26.6,M,0000,0000*5E
$GPGGA,000323.000,3328.8399,N,11205.2655,W,2,05,1.47,311.8,M,-26.6,M,0000,0000*5E
$GPGGA,000324.000,3328.8454,N,11205.2647,W,2,05,1.43,315.1,M,-26.6,M,0000,0000*55
$GPGGA,000325.000,3328.8463,N,11205.2645,W,2,05,1.43,315.7,M,-26.6,M,0000,0000*54
$GPGGA,000326.000,3328.8492,N,11205.2638,W,2,05,1.43,317.6,M,-26.6,M,0000,0000*50
$GPGGA,000327.000,3328.8515,N,11205.2633,W,2,05,1.43,319.0,M,-26.6,M,0000,0000*5C
$GPGGA,000328.000,3328.8541,N,11205.2628,W,2,05,1.43,320.7,M,-26.6,M,0000,0000*55
$GPGGA,000329.000,3328.8558,N,11205.2625,W,2,05,1.43,321.9,M,-26.6,M,0000,0000*5E
$GPGGA,000330.000,3328.8572,N,11205.2623,W,2,05,1.43,322.9,M,-26.6,M,0000,0000*5B
$GPGGA,000331.000,3328.8588,N,11205.2619,W,2,05,1.43,323.9,M,-26.6,M,0000,0000*57
$GPGGA,000332.000,3328.8596,N,11205.2618,W,2,05,1.43,324.6,M,-26.6,M,0000,0000*52
$GPGGA,000333.000,3328.8603,N,11205.2616,W,2,06,1.27,325.2,M,-26.6,M,0000,0000*56
$GPGGA,000334.000,3328.8606,N,11205.2621,W,2,06,1.23,326.0,M,-26.6,M,0000,0000*55
$GPGGA,000335.000,3328.8608,N,11205.2627,W,2,06,1.27,326.8,M,-26.6,M,0000,0000*50
$GPGGA,000336.000,3328.8609,N,11205.2627,W,2,06,1.23,326.8,M,-26.6,M,0000,0000*56
$GPGGA,000337.000,3328.8609,N,11205.2627,W,2,06,1.23,326.8,M,-26.6,M,0000,0000*57
$GPGGA,000338.000,3328.8610,N,11205.2627,W,2,06,1.23,326.9,M,-26.6,M,0000,0000*51
$GPGGA,000339.000,3328.8610,N,11205.2627,W,2,06,1.23,326.9,M,-26.6,M,0000,0000*50
$GPGGA,000340.000,3328.8610,N,11205.2626,W,2,06,1.23,326.9,M,-26.6,M,0000,0000*5F
$GPGGA,000341.000,3328.8610,N,11205.2626,W,2,06,1.23,326.9,M,-26.6,M,0000,0000*5E
$GPGGA,000342.000,3328.8609,N,11205.2625,W,2,06,1.23,326.9,M,-26.6,M,0000,0000*56
$GPGGA,000343.000,3328.8609,N,11205.2626,W,2,06,1.23,326.9,M,-26.6,M,0000,0000*54
$GPGGA,000344.000,3328.8609,N,11205.2626,W,2,06,1.23,326.9,M,-26.6,M,0000,0000*53
$GPGGA,000345.000,3328.8609,N,11205.2626,W,2,06,1.23,326.9,M,-26.6,M,0000,0000*52
$GPGGA,000346.000,3328.8609,N,11205.2627,W,2,06,1.23,326.9,M,-26.6,M,0000,0000*50
$GPGGA,000347.000,3328.8609,N,11205.2627,W,2,06,1.23,327.0,M,-26.6,M,0000,0000*59
$GPGGA,000348.000,3328.8609,N,11205.2629,W,2,06,1.23,327.0,M,-26.6,M,0000,0000*58
$GPGGA,000349.000,3328.8608,N,11205.2630,W,2,06,1.23,327.0,M,-26.6,M,0000,0000*50
$GPGGA,000350.000,3328.8607,N,11205.2630,W,2,06,1.23,327.0,M,-26.6,M,0000,0000*57
$GPGGA,000351.000,3328.8607,N,11205.2630,W,2,06,1.23,327.0,M,-26.6,M,0000,0000*56
$GPGGA,000352.000,3328.8607,N,11205.2630,W,2,06,1.23,327.0,M,-26.6,M,0000,0000*55
$GPGGA,000353.000,3328.8607,N,11205.2630,W,2,06,1.23,327.0,M,-26.6,M,0000,0000*54
$GPGGA,000354.000,3328.8607,N,11205.2631,W,2,06,1.23,327.0,M,-26.6,M,0000,0000*52
$GPGGA,000355.000,3328.8607,N,11205.2630,W,2,06,1.23,327.0,M,-26.6,M,0000,0000*52
$GPGGA,000356.000,3328.8607,N,11205.2630,W,2,06,1.23,327.0,M,-26.6,M,0000,0000*51
$GPGGA,000357.000,3328.8608,N,11205.2630,W,2,06,1.23,327.0,M,-26.6,M,0000,0000*5F
$GPGGA,000358.000,3328.8609,N,11205.2631,W,2,06,1.23,327.0,M,-26.6,M,0000,0000*50
$GPGGA,000359.000,3328.8610,N,11205.2632,W,2,06,1.23,327.0,M,-26.6,M,0000,0000*5A
$GPGGA,000400.000,3328.8610,N,11205.2633,W,2,06,1.23,327.0,M,-26.6,M,0000,0000*50
$GPGGA,000401.000,3328.8611,N,11205.2633,W,2,06,1.28,327.0,M,-26.6,M,0000,0000*5B
$GPGGA,000402.000,3328.8610,N,11205.2632,W,2,06,1.23,327.0,M,-26.6,M,0000,0000*53
$GPGGA,000403.000,3328.8609,N,11205.2631,W,2,06,1.23,327.1,M,-26.6,M,0000,0000*58
$GPGGA,000404.000,3328.8608,N,11205.2631,W,2,06,1.23,327.1,M,-26.6,M,0000,0000*5E
$GPGGA,000405.000,3328.8608,N,11205.2632,W,2,06,1.23,327.1,M,-26.6,M,0000,0000*5C
$GPGGA,000406.000,3328.8608,N,11205.2633,W,2,06,1.23,327.1,M,-26.6,M,0000,0000*5E
$GPGGA,000407.000,3328.8608,N,11205.2633,W,2,06,1.23,327.1,M,-26.6,M,0000,0000*5F
$GPGGA,000408.000,3328.8608,N,11205.2634,W,2,06,1.23,327.1,M,-26.6,M,0000,0000*57
$GPGGA,000409.000,3328.8608,N,11205.2634,W,2,06,1.23,327.2,M,-26.6,M,0000,0000*55
$GPGGA,000410.000,3328.8608,N,11205.2635,W,2,06,1.23,327.2,M,-26.6,M,0000,0000*5C
$GPGGA,000411.000,3328.8608,N,11205.2636,W,2,06,1.23,327.2,M,-26.6,M,0000,0000*5E
$GPGGA,000412.000,3328.8608,N,11205.2637,W,2,06,1.23,327.2,M,-26.6,M,0000,0000*5C
$GPGGA,000413.000,3328.8608,N,11205.2637,W,2,06,1.23,327.2,M,-26.6,M,0000,0000*5D
$GPGGA,000414.000,3328.8608,N,11205.2638,W,2,06,1.23,327.2,M,-26.6,M,0000,0000*55
$GPGGA,000415.000,3328.8606,N,11205.2638,W,2,06,1.23,327.2,M,-26.6,M,0000,0000*5A
$GPGGA,000416.000,3328.8606,N,11205.2639,W,2,06,1.23,327.2,M,-26.6,M,0000,0000*58
$GPGGA,000417.000,3328.8605,N,11205.2639,W,2,06,1.23,327.3,M,-26.6,M,0000,0000*5B
$GPGGA,000418.000,3328.8605,N,11205.2640,W,2,06,1.23,327.3,M,-26.6,M,0000,0000*5A
$GPGGA,000419.000,3328.8604,N,11205.2640,W,2,06,1.23,327.3,M,-26.6,M,0000,0000*5A
$GPGGA,000420.000,3328.8604,N,11205.2641,W,2,06,1.23,327.3,M,-26.6,M,0000,0000*51
$GPGGA,000421.000,3328.8604,N,11205.2642,W,2,06,1.23,327.3,M,-26.6,M,0000,0000*53
$GPGGA,000422.000,3328.8605,N,11205.2642,W,2,06,1.23,327.3,M,-26.6,M,0000,0000*51
$GPGGA,000423.000,3328.8606,N,11205.2643,W,2,06,1.23,327.3,M,-26.6,M,0000,0000*52
$GPGGA,000424.000,3328.8606,N,11205.2643,W,2,06,1.23,327.3,M,-26.6,M,0000,0000*55
$GPGGA,000425.000,3328.8606,N,11205.2643,W,2,06,1.23,327.3,M,-26.6,M,0000,0000*54
$GPGGA,000426.000,3328.8606,N,11205.2643,W,2,06,1.23,327.4,M,-26.6,M,0000,0000*50
$GPGGA,000427.000,3328.8606,N,11205.2644,W,2,06,1.24,327.4,M,-26.6,M,0000,0000*51
$GPGGA,000428.000,3328.8606,N,11205.2645,W,2,06,1.23,327.4,M,-26.6,M,0000,0000*58
$GPGGA,000429.000,3328.8606,N,11205.2646,W,2,06,1.23,327.4,M,-26.6,M,0000,0000*5A
$GPGGA,000430.000,3328.8606,N,11205.2647,W,2,06,1.24,327.4,M,-26.6,M,0000,0000*54
$GPGGA,000431.000,3328.8607,N,11205.2648,W,2,06,1.23,327.4,M,-26.6,M,0000,0000*5C
$GPGGA,000432.000,3328.8607,N,11205.2649,W,2,06,1.23,327.4,M,-26.6,M,0000,0000*5E
$GPGGA,000433.000,3328.8608,N,11205.2649,W,2,06,1.23,327.4,M,-26.6,M,0000,0000*50
$GPGGA,000434.000,3328.8608,N,11205.2649,W,2,06,1.23,327.4,M,-26.6,M,0000,0000*57
$GPGGA,000435.000,3328.8608,N,11205.2648,W,2,06,1.23,327.4,M,-26.6,M,0000,0000*57
$GPGGA,000436.000,3328.8608,N,11205.2648,W,2,06,1.23,327.4,M,-26.6,M,0000,0000*54
$GPGGA,000437.000,3328.8608,N,11205.2648,W,2,06,1.24,327.4,M,-26.6,M,0000,0000*52
$GPGGA,000438.000,3328.8607,N,11205.2649,W,2,06,1.23,327.4,M,-26.6,M,0000,0000*54
$GPGGA,000439.000,3328.8608,N,11205.2650,W,2,06,1.24,327.4,M,-26.6,M,0000,0000*55
$GPGGA,000440.000,3328.8608,N,11205.2650,W,2,06,1.24,327.4,M,-26.6,M,0000,0000*5B
$GPGGA,000441.000,3328.8608,N,11205.2650,W,2,06,1.24,327.4,M,-26.6,M,0000,0000*5A
$GPGGA,000442.000,3328.8608,N,11205.2651,W,2,06,1.24,327.4,M,-26.6,M,0000,0000*58
$GPGGA,000443.000,3328.8607,N,11205.2651,W,2,06,1.24,327.4,M,-26.6,M,0000,0000*56
$GPGGA,000444.000,3328.8606,N,11205.2650,W,2,06,1.24,327.5,M,-26.6,M,0000,0000*50
$GPGGA,000445.000,3328.8605,N,11205.2650,W,2,06,1.24,327.5,M,-26.6,M,0000,0000*52
$GPGGA,000446.000,3328.8604,N,11205.2649,W,2,06,1.24,327.5,M,-26.6,M,0000,0000*58
$GPGGA,000447.000,3328.8605,N,11205.2650,W,2,06,1.24,327.5,M,-26.6,M,0000,0000*50
$GPGGA,000448.000,3328.8608,N,11205.2651,W,2,06,1.24,327.6,M,-26.6,M,0000,0000*50
$GPGGA,000449.000,3328.8618,N,11205.2651,W,2,05,1.39,327.7,M,-26.6,M,0000,0000*5E
$GPGGA,000450.000,3328.8624,N,11205.2649,W,2,06,1.24,327.7,M,-26.6,M,0000,0000*5F
$GPGGA,000451.000,3328.8626,N,11205.2648,W,2,06,1.24,327.8,M,-26.6,M,0000,0000*52
$GPGGA,000452.000,3328.8631,N,11205.2647,W,2,05,1.39,327.8,M,-26.6,M,0000,0000*57
$GPGGA,000453.000,3328.8633,N,11205.2648,W,2,06,1.24,327.8,M,-26.6,M,0000,0000*54
$GPGGA,000454.000,3328.8635,N,11205.2648,W,2,06,1.24,327.8,M,-26.6,M,0000,0000*55
$GPGGA,000455.000,3328.8636,N,11205.2649,W,2,06,1.24,327.8,M,-26.6,M,0000,0000*56
$GPGGA,000456.000,3328.8635,N,11205.2649,W,2,05,1.39,327.8,M,-26.6,M,0000,0000*59
$GPGGA,000457.000,3328.8635,N,11205.2650,W,2,07,1.13,327.8,M,-26.6,M,0000,0000*5A
$GPGGA,000458.000,3328.8635,N,11205.2650,W,2,07,1.13,327.8,M,-26.6,M,0000,0000*55
$GPGGA,000459.000,3328.8635,N,11205.2650,W,2,07,1.13,327.8,M,-26.6,M,0000,0000*54
$GPGGA,000500.000,3328.8634,N,11205.2649,W,2,07,1.13,327.8,M,-26.6,M,0000,0000*50
$GPGGA,000501.000,3328.8634,N,11205.2649,W,2,07,1.13,327.9,M,-26.6,M,0000,0000*50
$GPGGA,000502.000,3328.8634,N,11205.2648,W,2,07,1.13,327.9,M,-26.6,M,0000,0000*52
$GPGGA,000503.000,3328.8634,N,11205.2647,W,2,07,1.13,327.9,M,-26.6,M,0000,0000*5C
$GPGGA,000504.000,3328.8634,N,11205.2646,W,2,07,1.13,327.9,M,-26.6,M,0000,0000*5A
$GPGGA,000505.000,3328.8634,N,11205.2646,W,2,07,1.13,327.9,M,-26.6,M,0000,0000*5B
$GPGGA,000506.000,3328.8634,N,11205.2646,W,2,07,1.18,327.9,M,-26.6,M,0000,0000*53
$GPGGA,000507.000,3328.8635,N,11205.2645,W,2,07,1.13,327.9,M,-26.6,M,0000,0000*5B
$GPGGA,000508.000,3328.8635,N,11205.2645,W,2,06,1.30,327.9,M,-26.6,M,0000,0000*54
$GPGGA,000509.000,3328.8635,N,11205.2645,W,2,06,1.30,327.9,M,-26.6,M,0000,0000*55
$GPGGA,000510.000,3328.8635,N,11205.2645,W,2,06,1.30,327.9,M,-26.6,M,0000,0000*5D
$GPGGA,000511.000,3328.8635,N,11205.2644,W,2,06,1.30,327.9,M,-26.6,M,0000,0000*5D
$GPGGA,000512.000,3328.8635,N,11205.2643,W,2,07,1.13,327.9,M,-26.6,M,0000,0000*59
$GPGGA,000513.000,3328.8635,N,11205.2642,W,2,07,1.13,327.9,M,-26.6,M,0000,0000*59
$GPGGA,000514.000,3328.8635,N,11205.2641,W,2,07,1.13,327.9,M,-26.6,M,0000,0000*5D
$GPGGA,000515.000,3328.8635,N,11205.2641,W,2,07,1.13,327.9,M,-26.6,M,0000,0000*5C
$GPGGA,000516.000,3328.8635,N,11205.2640,W,2,07,1.13,327.9,M,-26.6,M,0000,0000*5E
$GPGGA,000517.000,3328.8635,N,11205.2640,W,2,07,1.13,327.9,M,-26.6,M,0000,0000*5F
$GPGGA,000518.000,3328.8635,N,11205.2640,W,2,07,1.13,327.9,M,-26.6,M,0000,0000*50
$GPGGA,000519.000,3328.8635,N,11205.2639,W,2,07,1.13,327.9,M,-26.6,M,0000,0000*5F
$GPGGA,000520.000,3328.8635,N,11205.2638,W,2,07,1.13,327.9,M,-26.6,M,0000,0000*54
$GPGGA,000521.000,3328.8635,N,11205.2638,W,2,07,1.13,327.9,M,-26.6,M,0000,0000*55
$GPGGA,000522.000,3328.8634,N,11205.2638,W,2,07,1.13,327.9,M,-26.6,M,0000,0000*57
$GPGGA,000523.000,3328.8634,N,11205.2638,W,2,07,1.13,327.9,M,-26.6,M,0000,0000*56
$GPGGA,000524.000,3328.8634,N,11205.2638,W,2,07,1.13,327.9,M,-26.6,M,0000,0000*51
$GPGGA,000525.000,3328.8634,N,11205.2638,W,2,07,1.13,327.9,M,-26.6,M,0000,0000*50
$GPGGA,000526.000,3328.8635,N,11205.2638,W,2,06,1.30,327.9,M,-26.6,M,0000,0000*52
$GPGGA,000527.000,3328.8636,N,11205.2638,W,2,06,1.30,327.9,M,-26.6,M,0000,0000*50
$GPGGA,000528.000,3328.8637,N,11205.2638,W,2,07,1.13,327.9,M,-26.6,M,0000,0000*5E
$GPGGA,000529.000,3328.8637,N,11205.2639,W,2,07,1.13,327.9,M,-26.6,M,0000,0000*5E
$GPGGA,000530.000,3328.8636,N,11205.2639,W,2,07,1.13,327.9,M,-26.6,M,0000,0000*57
$GPGGA,000531.000,3328.8635,N,11205.2636,W,2,07,1.13,327.9,M,-26.6,M,0000,0000*5A
$GPGGA,000532.000,3328.8633,N,11205.2635,W,2,07,1.13,327.9,M,-26.6,M,0000,0000*5C
$GPGGA,000533.000,3328.8631,N,11205.2633,W,2,07,1.13,327.9,M,-26.6,M,0000,0000*59
$GPGGA,000534.000,3328.8629,N,11205.2630,W,2,07,1.13,328.1,M,-26.6,M,0000,0000*53
$GPGGA,000535.000,3328.8628,N,11205.2631,W,2,07,1.13,328.1,M,-26.6,M,0000,0000*52
$GPGGA,000536.000,3328.8627,N,11205.2632,W,2,07,1.13,328.1,M,-26.6,M,0000,0000*5D
$GPGGA,000537.000,3328.8626,N,11205.2633,W,2,07,1.13,328.1,M,-26.6,M,0000,0000*5C
$GPGGA,000538.000,3328.8625,N,11205.2635,W,2,07,1.13,328.1,M,-26.6,M,0000,0000*56
$GPGGA,000539.000,3328.8625,N,11205.2635,W,2,07,1.13,328.1,M,-26.6,M,0000,0000*57
$GPGGA,000540.000,3328.8625,N,11205.2635,W,2,07,1.13,328.1,M,-26.6,M,0000,0000*59
$GPGGA,000541.000,3328.8625,N,11205.2636,W,2,07,1.13,328.1,M,-26.6,M,0000,0000*5B
$GPGGA,000542.000,3328.8625,N,11205.2636,W,2,07,1.13,328.1,M,-26.6,M,0000,0000*58
$GPGGA,000543.000,3328.8625,N,11205.2636,W,2,07,1.13,328.1,M,-26.6,M,0000,0000*59
$GPGGA,000544.000,3328.8625,N,11205.2636,W,2,07,1.13,328.1,M,-26.6,M,0000,0000*5E
$GPGGA,000545.000,3328.8625,N,11205.2636,W,2,07,1.13,328.1,M,-26.6,M,0000,0000*5F
$GPGGA,000546.000,3328.8629,N,11205.2632,W,2,07,1.13,328.2,M,-26.6,M,0000,0000*57
$GPGGA,000547.000,3328.8631,N,11205.2631,W,2,07,1.13,328.3,M,-26.6,M,0000,0000*5D
$GPGGA,000548.000,3328.8638,N,11205.2631,W,2,07,1.13,328.3,M,-26.6,M,0000,0000*5B
$GPGGA,000549.000,3328.8640,N,11205.2630,W,2,07,1.13,328.4,M,-26.6,M,0000,0000*53
$GPGGA,000550.000,3328.8641,N,11205.2630,W,2,06,1.30,328.4,M,-26.6,M,0000,0000*5A
$GPGGA,000551.000,3328.8641,N,11205.2629,W,2,07,1.13,328.4,M,-26.6,M,0000,0000*53
$GPGGA,000552.000,3328.8641,N,11205.2629,W,2,07,1.13,328.4,M,-26.6,M,0000,0000*50
$GPGGA,000553.000,3328.8641,N,11205.2628,W,2,07,1.13,328.4,M,-26.6,M,0000,0000*50
$GPGGA,000554.000,3328.8642,N,11205.2628,W,2,07,1.19,328.4,M,-26.6,M,0000,0000*5E
$GPGGA,000555.000,3328.8641,N,11205.2628,W,2,07,1.13,328.4,M,-26.6,M,0000,0000*56
$GPGGA,000556.000,3328.8641,N,11205.2628,W,2,07,1.13,328.4,M,-26.6,M,0000,0000*55
$GPGGA,000557.000,3328.8642,N,11205.2628,W,2,07,1.13,328.6,M,-26.6,M,0000,0000*55
$GPGGA,000558.000,3328.8643,N,11205.2624,W,2,07,1.13,328.7,M,-26.6,M,0000,0000*56
$GPGGA,000559.000,3328.8644,N,11205.2621,W,2,07,1.13,328.9,M,-26.6,M,0000,0000*5B
$GPGGA,000600.000,3328.8648,N,11205.2618,W,2,07,1.13,329.1,M,-26.6,M,0000,0000*5B
$GPGGA,000601.000,3328.8651,N,11205.2616,W,2,07,1.19,329.2,M,-26.6,M,0000,0000*55
$GPGGA,000602.000,3328.8652,N,11205.2614,W,2,07,1.13,329.3,M,-26.6,M,0000,0000*5C
$GPGGA,000603.000,3328.8653,N,11205.2613,W,2,07,1.13,329.4,M,-26.6,M,0000,0000*5C
$GPGGA,000604.000,3328.8653,N,11205.2611,W,2,07,1.19,329.5,M,-26.6,M,0000,0000*52
$GPGGA,000605.000,3328.8653,N,11205.2610,W,2,07,1.13,329.6,M,-26.6,M,0000,0000*5B
$GPGGA,000606.000,3328.8653,N,11205.2608,W,2,07,1.14,329.7,M,-26.6,M,0000,0000*57
$GPGGA,000607.000,3328.8653,N,11205.2608,W,2,07,1.13,329.7,M,-26.6,M,0000,0000*51
$GPGGA,000608.000,3328.8653,N,11205.2608,W,2,07,1.13,329.7,M,-26.6,M,0000,0000*5E
$GPGGA,000607.000,3328.8653,N,11205.2605,W,2,07,1.13,329.9,M,-26.6,M,0000,0000*52
$GPGGA,000608.000,3328.8654,N,11205.2604,W,2,07,1.13,329.9,M,-26.6,M,0000,0000*5B
$GPGGA,000609.000,3328.8657,N,11205.2602,W,2,06,1.30,330.0,M,-26.6,M,0000,0000*5E
$GPGGA,000610.000,3328.8659,N,11205.2601,W,2,07,1.13,330.0,M,-26.6,M,0000,0000*5B
$GPGGA,000611.000,3328.8658,N,11205.2602,W,2,07,1.13,330.0,M,-26.6,M,0000,0000*58
$GPGGA,000612.000,3328.8659,N,11205.2601,W,2,06,1.30,330.0,M,-26.6,M,0000,0000*59
$GPGGA,000613.000,3328.8658,N,11205.2600,W,2,07,1.13,330.1,M,-26.6,M,0000,0000*59
$GPGGA,000614.000,3328.8655,N,11205.2601,W,2,07,1.13,330.2,M,-26.6,M,0000,0000*51
$GPGGA,000615.000,3328.8652,N,11205.2599,W,2,07,1.13,330.3,M,-26.6,M,0000,0000*54
$GPGGA,000616.000,3328.8651,N,11205.2600,W,2,07,1.13,330.3,M,-26.6,M,0000,0000*57
$GPGGA,000617.000,3328.8650,N,11205.2596,W,2,07,1.14,330.4,M,-26.6,M,0000,0000*5B
$GPGGA,000618.000,3328.8651,N,11205.2595,W,2,07,1.13,330.5,M,-26.6,M,0000,0000*50
$GPGGA,000619.000,3328.8651,N,11205.2594,W,2,07,1.14,330.5,M,-26.6,M,0000,0000*57
$GPGGA,000620.000,3328.8651,N,11205.2595,W,2,07,1.13,330.5,M,-26.6,M,0000,0000*5B
$GPGGA,000621.000,3328.8652,N,11205.2595,W,2,06,1.30,330.5,M,-26.6,M,0000,0000*59
$GPGGA,000622.000,3328.8652,N,11205.2596,W,2,07,1.14,330.5,M,-26.6,M,0000,0000*5E
$GPGGA,000623.000,3328.8652,N,11205.2595,W,2,07,1.13,330.5,M,-26.6,M,0000,0000*5B
$GPGGA,000624.000,3328.8652,N,11205.2595,W,2,06,1.30,330.5,M,-26.6,M,0000,0000*5C
$GPGGA,000625.000,3328.8652,N,11205.2596,W,2,06,1.30,330.5,M,-26.6,M,0000,0000*5E
$GPGGA,000626.000,3328.8653,N,11205.2597,W,2,07,1.13,330.5,M,-26.6,M,0000,0000*5D
$GPGGA,000627.000,3328.8653,N,11205.2598,W,2,07,1.13,330.5,M,-26.6,M,0000,0000*53
$GPGGA,000628.000,3328.8653,N,11205.2598,W,2,07,1.14,330.5,M,-26.6,M,0000,0000*5B
$GPGGA,000629.000,3328.8653,N,11205.2598,W,2,07,1.13,330.5,M,-26.6,M,0000,0000*5D
$GPGGA,000630.000,3328.8653,N,11205.2598,W,2,07,1.14,330.5,M,-26.6,M,0000,0000*52
$GPGGA,000631.000,3328.8653,N,11205.2597,W,2,07,1.14,330.5,M,-26.6,M,0000,0000*5C
$GPGGA,000632.000,3328.8653,N,11205.2597,W,2,07,1.14,330.5,M,-26.6,M,0000,0000*5F
$GPGGA,000633.000,3328.8653,N,11205.2597,W,2,07,1.14,330.5,M,-26.6,M,0000,0000*5E
$GPGGA,000634.000,3328.8653,N,11205.2597,W,2,07,1.14,330.5,M,-26.6,M,0000,0000*59
$GPGGA,000635.000,3328.8653,N,11205.2597,W,2,06,1.30,330.5,M,-26.6,M,0000,0000*5F
$GPGGA,000636.000,3328.8653,N,11205.2597,W,2,07,1.14,330.5,M,-26.6,M,0000,0000*5B
$GPGGA,000637.000,3328.8653,N,11205.2597,W,2,07,1.14,330.5,M,-26.6,M,0000,0000*5A
$GPGGA,000638.000,3328.8653,N,11205.2597,W,2,07,1.14,330.5,M,-26.6,M,0000,0000*55
$GPGGA,000639.000,3328.8653,N,11205.2597,W,2,07,1.14,330.5,M,-26.6,M,0000,0000*54
$GPGGA,000640.000,3328.8653,N,11205.2598,W,2,07,1.14,330.5,M,-26.6,M,0000,0000*55
$GPGGA,000641.000,3328.8653,N,11205.2598,W,2,07,1.14,330.5,M,-26.6,M,0000,0000*54
$GPGGA,000642.000,3328.8652,N,11205.2597,W,2,07,1.14,330.5,M,-26.6,M,0000,0000*59
$GPGGA,000643.000,3328.8651,N,11205.2597,W,2,07,1.14,330.5,M,-26.6,M,0000,0000*5B
$GPGGA,000644.000,3328.8651,N,11205.2597,W,2,07,1.14,330.5,M,-26.6,M,0000,0000*5C
$GPGGA,000645.000,3328.8650,N,11205.2596,W,2,07,1.14,330.5,M,-26.6,M,0000,0000*5D
$GPGGA,000646.000,3328.8650,N,11205.2596,W,2,07,1.14,330.6,M,-26.6,M,0000,0000*5D
$GPGGA,000647.000,3328.8650,N,11205.2596,W,2,07,1.14,330.6,M,-26.6,M,0000,0000*5C
$GPGGA,000648.000,3328.8650,N,11205.2597,W,2,07,1.14,330.6,M,-26.6,M,0000,0000*52
$GPGGA,000649.000,3328.8651,N,11205.2597,W,2,07,1.14,330.6,M,-26.6,M,0000,0000*52
$GPGGA,000650.000,3328.8651,N,11205.2597,W,2,07,1.14,330.6,M,-26.6,M,0000,0000*5A
$GPGGA,000651.000,3328.8652,N,11205.2598,W,2,07,1.14,330.6,M,-26.6,M,0000,0000*57
$GPGGA,000652.000,3328.8650,N,11205.2596,W,2,07,1.20,330.8,M,-26.6,M,0000,0000*51
$GPGGA,000653.000,3328.8648,N,11205.2594,W,2,07,1.14,330.9,M,-26.6,M,0000,0000*5D
$GPGGA,000654.000,3328.8648,N,11205.2595,W,2,07,1.14,330.9,M,-26.6,M,0000,0000*5B
$GPGGA,000655.000,3328.8648,N,11205.2597,W,2,07,1.14,331.0,M,-26.6,M,0000,0000*50
$GPGGA,000656.000,3328.8647,N,11205.2597,W,2,07,1.14,331.0,M,-26.6,M,0000,0000*5C
$GPGGA,000657.000,3328.8646,N,11205.2598,W,2,07,1.14,331.0,M,-26.6,M,0000,0000*53
$GPGGA,000658.000,3328.8646,N,11205.2598,W,2,07,1.14,331.0,M,-26.6,M,0000,0000*5C
$GPGGA,000659.000,3328.8646,N,11205.2599,W,2,07,1.14,331.0,M,-26.6,M,0000,0000*5C
$GPGGA,000700.000,3328.8646,N,11205.2599,W,2,07,1.14,331.0,M,-26.6,M,0000,0000*51
$GPGGA,000701.000,3328.8646,N,11205.2599,W,2,07,1.14,331.0,M,-26.6,M,0000,0000*50
$GPGGA,000702.000,3328.8647,N,11205.2598,W,2,07,1.14,331.0,M,-26.6,M,0000,0000*53
$GPGGA,000703.000,3328.8648,N,11205.2598,W,2,07,1.20,331.0,M,-26.6,M,0000,0000*5A
$GPGGA,000704.000,3328.8648,N,11205.2598,W,2,07,1.20,331.0,M,-26.6,M,0000,0000*5D
$GPGGA,000705.000,3328.8650,N,11205.2598,W,2,07,1.14,331.2,M,-26.6,M,0000,0000*50
$GPGGA,000706.000,3328.8651,N,11205.2595,W,2,06,1.21,331.2,M,-26.6,M,0000,0000*58
$GPGGA,000707.000,3328.8654,N,11205.2592,W,2,07,1.14,331.3,M,-26.6,M,0000,0000*5D
$GPGGA,000708.000,3328.8650,N,11205.2598,W,2,07,1.14,331.9,M,-26.6,M,0000,0000*56
$GPGGA,000709.000,3328.8649,N,11205.2599,W,2,07,1.14,332.1,M,-26.6,M,0000,0000*55
$GPGGA,000710.000,3328.8656,N,11205.2596,W,2,07,1.14,332.3,M,-26.6,M,0000,0000*5E
$GPGGA,000711.000,3328.8658,N,11205.2599,W,2,06,1.21,332.5,M,-26.6,M,0000,0000*5F
$GPGGA,000712.000,3328.8659,N,11205.2598,W,2,07,1.14,332.6,M,-26.6,M,0000,0000*58
$GPGGA,000713.000,3328.8661,N,11205.2599,W,2,06,1.21,332.7,M,-26.6,M,0000,0000*55
$GPGGA,000714.000,3328.8661,N,11205.2599,W,2,06,1.21,332.8,M,-26.6,M,0000,0000*5D
$GPGGA,000715.000,3328.8661,N,11205.2597,W,2,07,1.14,332.8,M,-26.6,M,0000,0000*55
$GPGGA,000716.000,3328.8665,N,11205.2595,W,2,07,1.14,332.8,M,-26.6,M,0000,0000*50
$GPGGA,000717.000,3328.8666,N,11205.2595,W,2,07,1.14,332.8,M,-26.6,M,0000,0000*52
$GPGGA,000718.000,3328.8667,N,11205.2595,W,2,07,1.20,332.8,M,-26.6,M,0000,0000*5B
$GPGGA,000719.000,3328.8667,N,11205.2593,W,2,07,1.20,332.8,M,-26.6,M,0000,0000*5C
$GPGGA,000720.000,3328.8668,N,11205.2592,W,2,07,1.14,332.8,M,-26.6,M,0000,0000*5F
$GPGGA,000721.000,3328.8667,N,11205.2593,W,2,07,1.14,332.9,M,-26.6,M,0000,0000*51
$GPGGA,000722.000,3328.8669,N,11205.2593,W,2,07,1.20,332.9,M,-26.6,M,0000,0000*5B
$GPGGA,000723.000,3328.8668,N,11205.2592,W,2,06,1.27,332.8,M,-26.6,M,0000,0000*5D
$GPGGA,000724.000,3328.8668,N,11205.2592,W,2,07,1.14,332.8,M,-26.6,M,0000,0000*5B
$GPGGA,000725.000,3328.8668,N,11205.2591,W,2,06,1.21,332.8,M,-26.6,M,0000,0000*5E
$GPGGA,000726.000,3328.8669,N,11205.2591,W,2,07,1.14,332.8,M,-26.6,M,0000,0000*5B
$GPGGA,000727.000,3328.8669,N,11205.2590,W,2,06,1.21,332.8,M,-26.6,M,0000,0000*5C
$GPGGA,000728.000,3328.8669,N,11205.2589,W,2,07,1.14,332.8,M,-26.6,M,0000,0000*5C
$GPGGA,000729.000,3328.8670,N,11205.2589,W,2,06,1.21,332.8,M,-26.6,M,0000,0000*52
$GPGGA,000730.000,3328.8670,N,11205.2588,W,2,06,1.21,332.8,M,-26.6,M,0000,0000*5B
$GPGGA,000731.000,3328.8670,N,11205.2589,W,2,07,1.14,332.8,M,-26.6,M,0000,0000*5C
$GPGGA,000732.000,3328.8670,N,11205.2589,W,2,07,1.14,332.8,M,-26.6,M,0000,0000*5F
$GPGGA,000733.000,3328.8670,N,11205.2589,W,2,06,1.21,332.8,M,-26.6,M,0000,0000*59
$GPGGA,000734.000,3328.8669,N,11205.2589,W,2,07,1.14,332.8,M,-26.6,M,0000,0000*51
$GPGGA,000735.000,3328.8668,N,11205.2589,W,2,06,1.21,332.8,M,-26.6,M,0000,0000*56
$GPGGA,000736.000,3328.8668,N,11205.2587,W,2,07,1.14,332.8,M,-26.6,M,0000,0000*5C
$GPGGA,000737.000,3328.8667,N,11205.2587,W,2,07,1.14,332.8,M,-26.6,M,0000,0000*52
$GPGGA,000738.000,3328.8668,N,11205.2586,W,2,07,1.14,332.8,M,-26.6,M,0000,0000*53
$GPGGA,000739.000,3328.8669,N,11205.2586,W,2,07,1.20,332.8,M,-26.6,M,0000,0000*54
$GPGGA,000740.000,3328.8670,N,11205.2587,W,2,07,1.14,332.8,M,-26.6,M,0000,0000*54
$GPGGA,000741.000,3328.8671,N,11205.2587,W,2,07,1.20,332.8,M,-26.6,M,0000,0000*53
$GPGGA,000742.000,3328.8672,N,11205.2587,W,2,07,1.20,332.8,M,-26.6,M,0000,0000*53
$GPGGA,000743.000,3328.8673,N,11205.2587,W,2,07,1.20,332.8,M,-26.6,M,0000,0000*53
$GPGGA,000744.000,3328.8672,N,11205.2587,W,2,06,1.21,332.8,M,-26.6,M,0000,0000*55
$GPGGA,000745.000,3328.8672,N,11205.2587,W,2,06,1.21,332.8,M,-26.6,M,0000,0000*54
$GPGGA,000746.000,3328.8671,N,11205.2587,W,2,07,1.14,332.8,M,-26.6,M,0000,0000*53
$GPGGA,000747.000,3328.8671,N,11205.2587,W,2,06,1.21,332.8,M,-26.6,M,0000,0000*55
$GPGGA,000748.000,3328.8671,N,11205.2586,W,2,07,1.14,332.8,M,-26.6,M,0000,0000*5C
$GPGGA,000749.000,3328.8671,N,11205.2586,W,2,07,1.14,332.8,M,-26.6,M,0000,0000*5D
$GPGGA,000750.000,3328.8670,N,11205.2585,W,2,07,1.14,332.8,M,-26.6,M,0000,0000*57
$GPGGA,000751.000,3328.8670,N,11205.2584,W,2,07,1.14,332.8,M,-26.6,M,0000,0000*57
$GPGGA,000752.000,3328.8671,N,11205.2584,W,2,07,1.20,332.8,M,-26.6,M,0000,0000*52
$GPGGA,000753.000,3328.8671,N,11205.2584,W,2,06,1.27,332.9,M,-26.6,M,0000,0000*54
$GPGGA,000754.000,3328.8671,N,11205.2584,W,2,07,1.14,332.8,M,-26.6,M,0000,0000*53
$GPGGA,000755.000,3328.8671,N,11205.2584,W,2,06,1.21,332.8,M,-26.6,M,0000,0000*55
$GPGGA,000756.000,3328.8670,N,11205.2584,W,2,06,1.21,332.8,M,-26.6,M,0000,0000*57
$GPGGA,000757.000,3328.8668,N,11205.2585,W,2,06,1.21,332.8,M,-26.6,M,0000,0000*5E
$GPGGA,000758.000,3328.8668,N,11205.2585,W,2,06,1.21,332.8,M,-26.6,M,0000,0000*51
$GPGGA,000759.000,3328.8667,N,11205.2586,W,2,07,1.14,332.8,M,-26.6,M,0000,0000*5B
$GPGGA,000800.000,3328.8667,N,11205.2586,W,2,06,1.31,332.8,M,-26.6,M,0000,0000*5E
$GPGGA,000801.000,3328.8667,N,11205.2586,W,2,07,1.14,332.8,M,-26.6,M,0000,0000*59
$GPGGA,000802.000,3328.8666,N,11205.2585,W,2,07,1.14,332.8,M,-26.6,M,0000,0000*58
$GPGGA,000803.000,3328.8667,N,11205.2583,W,2,07,1.14,332.8,M,-26.6,M,0000,0000*5E
$GPGGA,000804.000,3328.8668,N,11205.2582,W,2,07,1.14,332.8,M,-26.6,M,0000,0000*57
$GPGGA,000805.000,3328.8670,N,11205.2583,W,2,07,1.14,332.8,M,-26.6,M,0000,0000*5E
$GPGGA,000806.000,3328.8670,N,11205.2582,W,2,07,1.14,332.8,M,-26.6,M,0000,0000*5C
$GPGGA,000807.000,3328.8670,N,11205.2582,W,2,07,1.14,332.8,M,-26.6,M,0000,0000*5D
$GPGGA,000808.000,3328.8670,N,11205.2582,W,2,07,1.14,332.8,M,-26.6,M,0000,0000*52
$GPGGA,000809.000,3328.8670,N,11205.2581,W,2,06,1.21,332.8,M,-26.6,M,0000,0000*57
$GPGGA,000810.000,3328.8670,N,11205.2581,W,2,07,1.14,332.8,M,-26.6,M,0000,0000*58
$GPGGA,000811.000,3328.8671,N,11205.2580,W,2,07,1.14,332.8,M,-26.6,M,0000,0000*59
$GPGGA,000812.000,3328.8671,N,11205.2580,W,2,07,1.14,332.8,M,-26.6,M,0000,0000*5A
$GPGGA,000813.000,3328.8671,N,11205.2580,W,2,06,1.31,332.8,M,-26.6,M,0000,0000*5D
$GPGGA,000814.000,3328.8670,N,11205.2581,W,2,07,1.14,332.8,M,-26.6,M,0000,0000*5C
$GPGGA,000815.000,3328.8670,N,11205.2582,W,2,06,1.31,332.8,M,-26.6,M,0000,0000*58
$GPGGA,000816.000,3328.8669,N,11205.2582,W,2,07,1.14,332.8,M,-26.6,M,0000,0000*55
$GPGGA,000817.000,3328.8669,N,11205.2583,W,2,07,1.14,332.8,M,-26.6,M,0000,0000*55
$GPGGA,000818.000,3328.8669,N,11205.2583,W,2,07,1.14,332.8,M,-26.6,M,0000,0000*5A
$GPGGA,000819.000,3328.8669,N,11205.2583,W,2,07,1.14,332.8,M,-26.6,M,0000,0000*5B
$GPGGA,000820.000,3328.8669,N,11205.2583,W,2,07,1.14,332.9,M,-26.6,M,0000,0000*50
$GPGGA,000821.000,3328.8669,N,11205.2582,W,2,07,1.14,332.9,M,-26.6,M,0000,0000*50
$GPGGA,000822.000,3328.8669,N,11205.2580,W,2,07,1.14,333.0,M,-26.6,M,0000,0000*59
$GPGGA,000823.000,3328.8667,N,11205.2577,W,2,07,1.14,333.1,M,-26.6,M,0000,0000*5F
$GPGGA,000824.000,3328.8666,N,11205.2572,W,2,07,1.14,333.2,M,-26.6,M,0000,0000*5F
$GPGGA,000825.000,3328.8664,N,11205.2574,W,2,07,1.14,333.3,M,-26.6,M,0000,0000*5B
$GPGGA,000826.000,3328.8662,N,11205.2572,W,2,07,1.14,333.4,M,-26.6,M,0000,0000*5F
$GPGGA,000827.000,3328.8661,N,11205.2571,W,2,07,1.14,333.4,M,-26.6,M,0000,0000*5E
$GPGGA,000828.000,3328.8660,N,11205.2571,W,2,07,1.14,333.4,M,-26.6,M,0000,0000*50
$GPGGA,000829.000,3328.8660,N,11205.2570,W,2,07,1.14,333.4,M,-26.6,M,0000,0000*50
$GPGGA,000830.000,3328.8660,N,11205.2569,W,2,07,1.14,333.4,M,-26.6,M,0000,0000*50
$GPGGA,000831.000,3328.8660,N,11205.2571,W,2,07,1.14,333.5,M,-26.6,M,0000,0000*59
$GPGGA,000832.000,3328.8660,N,11205.2568,W,2,07,1.14,333.6,M,-26.6,M,0000,0000*51
$GPGGA,000833.000,3328.8660,N,11205.2567,W,2,07,1.21,333.6,M,-26.6,M,0000,0000*59
$GPGGA,000834.000,3328.8661,N,11205.2569,W,2,07,1.14,333.9,M,-26.6,M,0000,0000*58
$GPGGA,000835.000,3328.8661,N,11205.2568,W,2,07,1.14,334.0,M,-26.6,M,0000,0000*56
$GPGGA,000836.000,3328.8661,N,11205.2567,W,2,06,1.21,334.0,M,-26.6,M,0000,0000*5D
$GPGGA,000837.000,3328.8660,N,11205.2568,W,2,07,1.14,334.1,M,-26.6,M,0000,0000*54
$GPGGA,000838.000,3328.8660,N,11205.2571,W,2,06,1.21,334.2,M,-26.6,M,0000,0000*57
$GPGGA,000839.000,3328.8660,N,11205.2571,W,2,06,1.21,334.2,M,-26.6,M,0000,0000*56
$GPGGA,000840.000,3328.8659,N,11205.2572,W,2,06,1.22,334.2,M,-26.6,M,0000,0000*52
$GPGGA,000841.000,3328.8659,N,11205.2573,W,2,06,1.21,334.2,M,-26.6,M,0000,0000*51
$GPGGA,000842.000,3328.8659,N,11205.2574,W,2,07,1.14,334.2,M,-26.6,M,0000,0000*52
$GPGGA,000843.000,3328.8659,N,11205.2575,W,2,06,1.21,334.2,M,-26.6,M,0000,0000*55
$GPGGA,000844.000,3328.8659,N,11205.2576,W,2,07,1.14,334.2,M,-26.6,M,0000,0000*56
$GPGGA,000845.000,3328.8659,N,11205.2578,W,2,06,1.21,334.2,M,-26.6,M,0000,0000*5E
$GPGGA,000846.000,3328.8658,N,11205.2579,W,2,07,1.14,334.2,M,-26.6,M,0000,0000*5A
$GPGGA,000847.000,3328.8658,N,11205.2580,W,2,06,1.21,334.2,M,-26.6,M,0000,0000*5A
$GPGGA,000848.000,3328.8658,N,11205.2580,W,2,06,1.31,334.2,M,-26.6,M,0000,0000*54
$GPGGA,000849.000,3328.8657,N,11205.2580,W,2,06,1.22,334.2,M,-26.6,M,0000,0000*58
$GPGGA,000850.000,3328.8657,N,11205.2580,W,2,06,1.22,334.3,M,-26.6,M,0000,0000*51
$GPGGA,000851.000,3328.8657,N,11205.2581,W,2,07,1.14,334.3,M,-26.6,M,0000,0000*55
$GPGGA,000852.000,3328.8657,N,11205.2581,W,2,07,1.14,334.3,M,-26.6,M,0000,0000*56
$GPGGA,000853.000,3328.8657,N,11205.2581,W,2,07,1.14,334.3,M,-26.6,M,0000,0000*57
$GPGGA,000854.000,3328.8657,N,11205.2581,W,2,07,1.14,334.3,M,-26.6,M,0000,0000*50
$GPGGA,000855.000,3328.8657,N,11205.2581,W,2,07,1.14,334.3,M,-26.6,M,0000,0000*51
$GPGGA,000856.000,3328.8657,N,11205.2581,W,2,07,1.14,334.3,M,-26.6,M,0000,0000*52
$GPGGA,000857.000,3328.8657,N,11205.2581,W,2,07,1.14,334.3,M,-26.6,M,0000,0000*53
$GPGGA,000858.000,3328.8657,N,11205.2582,W,2,07,1.14,334.3,M,-26.6,M,0000,0000*5F
$GPGGA,000859.000,3328.8657,N,11205.2582,W,2,06,1.22,334.3,M,-26.6,M,0000,0000*5A
$GPGGA,000900.000,3328.8657,N,11205.2582,W,2,07,1.14,334.3,M,-26.6,M,0000,0000*53
$GPGGA,000901.000,3328.8657,N,11205.2583,W,2,07,1.14,334.3,M,-26.6,M,0000,0000*53
$GPGGA,000902.000,3328.8657,N,11205.2583,W,2,07,1.14,334.3,M,-26.6,M,0000,0000*50
$GPGGA,000903.000,3328.8656,N,11205.2584,W,2,07,1.14,334.3,M,-26.6,M,0000,0000*57
$GPGGA,000904.000,3328.8656,N,11205.2584,W,2,07,1.14,334.3,M,-26.6,M,0000,0000*50
$GPGGA,000905.000,3328.8655,N,11205.2584,W,2,07,1.14,334.3,M,-26.6,M,0000,0000*52
$GPGGA,000906.000,3328.8655,N,11205.2584,W,2,07,1.14,334.3,M,-26.6,M,0000,0000*51
$GPGGA,000907.000,3328.8656,N,11205.2584,W,2,07,1.21,334.3,M,-26.6,M,0000,0000*55
$GPGGA,000908.000,3328.8656,N,11205.2585,W,2,07,1.14,334.3,M,-26.6,M,0000,0000*5D
$GPGGA,000909.000,3328.8656,N,11205.2585,W,2,07,1.14,334.3,M,-26.6,M,0000,0000*5C
$GPGGA,000910.000,3328.8656,N,11205.2584,W,2,07,1.14,334.3,M,-26.6,M,0000,0000*55
$GPGGA,000911.000,3328.8655,N,11205.2584,W,2,07,1.14,334.3,M,-26.6,M,0000,0000*57
$GPGGA,000912.000,3328.8655,N,11205.2583,W,2,07,1.14,334.3,M,-26.6,M,0000,0000*53
$GPGGA,000913.000,3328.8655,N,11205.2582,W,2,07,1.14,334.3,M,-26.6,M,0000,0000*53
$GPGGA,000914.000,3328.8656,N,11205.2583,W,2,07,1.14,334.3,M,-26.6,M,0000,0000*56
$GPGGA,000915.000,3328.8657,N,11205.2584,W,2,07,1.14,334.3,M,-26.6,M,0000,0000*51
$GPGGA,000916.000,3328.8657,N,11205.2584,W,2,07,1.14,334.3,M,-26.6,M,0000,0000*52
$GPGGA,000917.000,3328.8657,N,11205.2585,W,2,07,1.14,334.4,M,-26.6,M,0000,0000*55
$GPGGA,000918.000,3328.8657,N,11205.2585,W,2,07,1.14,334.4,M,-26.6,M,0000,0000*5A
$GPGGA,000919.000,3328.8657,N,11205.2586,W,2,07,1.14,334.4,M,-26.6,M,0000,0000*58
$GPGGA,000920.000,3328.8657,N,11205.2586,W,2,07,1.14,334.4,M,-26.6,M,0000,0000*52
$GPGGA,000921.000,3328.8657,N,11205.2586,W,2,07,1.14,334.4,M,-26.6,M,0000,0000*53
$GPGGA,000922.000,3328.8657,N,11205.2587,W,2,07,1.14,334.4,M,-26.6,M,0000,0000*51
$GPGGA,000923.000,3328.8657,N,11205.2587,W,2,07,1.14,334.4,M,-26.6,M,0000,0000*50
$GPGGA,000924.000,3328.8657,N,11205.2586,W,2,07,1.14,334.4,M,-26.6,M,0000,0000*56
$GPGGA,000925.000,3328.8657,N,11205.2587,W,2,07,1.14,334.4,M,-26.6,M,0000,0000*56
$GPGGA,000926.000,3328.8657,N,11205.2587,W,2,07,1.14,334.4,M,-26.6,M,0000,0000*55
$GPGGA,000927.000,3328.8657,N,11205.2587,W,2,07,1.14,334.4,M,-26.6,M,0000,0000*54
$GPGGA,000928.000,3328.8657,N,11205.2587,W,2,07,1.21,334.4,M,-26.6,M,0000,0000*5D
$GPGGA,000929.000,3328.8657,N,11205.2587,W,2,07,1.14,334.4,M,-26.6,M,0000,0000*5A
$GPGGA,000930.000,3328.8657,N,11205.2588,W,2,06,1.27,334.4,M,-26.6,M,0000,0000*5C
$GPGGA,000931.000,3328.8657,N,11205.2588,W,2,06,1.22,334.4,M,-26.6,M,0000,0000*58
$GPGGA,000932.000,3328.8657,N,11205.2589,W,2,07,1.14,334.4,M,-26.6,M,0000,0000*5E
$GPGGA,000933.000,3328.8657,N,11205.2589,W,2,07,1.14,334.4,M,-26.6,M,0000,0000*5F
$GPGGA,000934.000,3328.8657,N,11205.2588,W,2,07,1.14,334.4,M,-26.6,M,0000,0000*59
$GPGGA,000935.000,3328.8657,N,11205.2588,W,2,07,1.14,334.4,M,-26.6,M,0000,0000*58
$GPGGA,000936.000,3328.8657,N,11205.2587,W,2,07,1.14,334.4,M,-26.6,M,0000,0000*54
$GPGGA,000937.000,3328.8658,N,11205.2587,W,2,06,1.22,334.3,M,-26.6,M,0000,0000*59
$GPGGA,000938.000,3328.8658,N,11205.2587,W,2,06,1.22,334.3,M,-26.6,M,0000,0000*56
$GPGGA,000939.000,3328.8658,N,11205.2588,W,2,07,1.14,334.3,M,-26.6,M,0000,0000*5C
$GPGGA,000940.000,3328.8658,N,11205.2589,W,2,07,1.14,334.3,M,-26.6,M,0000,0000*53
$GPGGA,000941.000,3328.8658,N,11205.2590,W,2,07,1.21,334.3,M,-26.6,M,0000,0000*5C
$GPGGA,000942.000,3328.8659,N,11205.2590,W,2,07,1.14,334.3,M,-26.6,M,0000,0000*58
$GPGGA,000943.000,3328.8660,N,11205.2591,W,2,07,1.14,334.2,M,-26.6,M,0000,0000*53
$GPGGA,000944.000,3328.8660,N,11205.2592,W,2,07,1.14,334.2,M,-26.6,M,0000,0000*57
$GPGGA,000945.000,3328.8661,N,11205.2595,W,2,07,1.14,334.2,M,-26.6,M,0000,0000*50
$GPGGA,000946.000,3328.8662,N,11205.2596,W,2,07,1.14,334.2,M,-26.6,M,0000,0000*53
$GPGGA,000947.000,3328.8663,N,11205.2598,W,2,07,1.14,334.2,M,-26.6,M,0000,0000*5D
$GPGGA,000948.000,3328.8663,N,11205.2598,W,2,07,1.14,334.2,M,-26.6,M,0000,0000*52
$GPGGA,000949.000,3328.8663,N,11205.2599,W,2,07,1.14,334.2,M,-26.6,M,0000,0000*52
$GPGGA,000950.000,3328.8663,N,11205.2600,W,2,07,1.14,334.2,M,-26.6,M,0000,0000*59
$GPGGA,000951.000,3328.8663,N,11205.2600,W,2,07,1.14,334.2,M,-26.6,M,0000,0000*58
$GPGGA,000952.000,3328.8663,N,11205.2600,W,2,07,1.14,334.2,M,-26.6,M,0000,0000*5B
$GPGGA,000953.000,3328.8663,N,11205.2600,W,2,05,1.46,334.2,M,-26.6,M,0000,0000*5F
$GPGGA,000954.000,3328.8662,N,11205.2600,W,2,06,1.27,334.2,M,-26.6,M,0000,0000*5D
$GPGGA,000955.000,3328.8662,N,11205.2600,W,2,07,1.14,334.2,M,-26.6,M,0000,0000*5D
$GPGGA,000956.000,3328.8662,N,11205.2600,W,2,07,1.14,334.2,M,-26.6,M,0000,0000*5E
$GPGGA,000957.000,3328.8661,N,11205.2600,W,2,07,1.14,334.2,M,-26.6,M,0000,0000*5C
$GPGGA,000958.000,3328.8660,N,11205.2599,W,2,07,1.14,334.2,M,-26.6,M,0000,0000*51
$GPGGA,000959.000,3328.8660,N,11205.2599,W,2,07,1.14,334.2,M,-26.6,M,0000,0000*50
$GPGGA,001000.000,3328.8660,N,11205.2599,W,2,06,1.27,334.2,M,-26.6,M,0000,0000*55
$GPGGA,001001.000,3328.8660,N,11205.2599,W,2,06,1.27,334.2,M,-26.6,M,0000,0000*54
$GPGGA,001002.000,3328.8660,N,11205.2599,W,2,06,1.27,334.2,M,-26.6,M,0000,0000*57
$GPGGA,001003.000,3328.8660,N,11205.2599,W,2,07,1.22,334.2,M,-26.6,M,0000,0000*52
$GPGGA,001004.000,3328.8661,N,11205.2599,W,2,07,1.22,334.2,M,-26.6,M,0000,0000*54
$GPGGA,001005.000,3328.8661,N,11205.2599,W,2,07,1.15,334.2,M,-26.6,M,0000,0000*51
$GPGGA,001006.000,3328.8661,N,11205.2600,W,2,07,1.14,334.2,M,-26.6,M,0000,0000*50
$GPGGA,001007.000,3328.8660,N,11205.2600,W,2,07,1.14,334.2,M,-26.6,M,0000,0000*50
$GPGGA,001008.000,3328.8660,N,11205.2600,W,2,07,1.14,334.2,M,-26.6,M,0000,0000*5F
$GPGGA,001009.000,3328.8662,N,11205.2599,W,2,07,1.14,334.2,M,-26.6,M,0000,0000*5F
$GPGGA,001010.000,3328.8662,N,11205.2600,W,2,07,1.14,334.3,M,-26.6,M,0000,0000*55
$GPGGA,001011.000,3328.8662,N,11205.2601,W,2,07,1.14,334.3,M,-26.6,M,0000,0000*55
$GPGGA,001012.000,3328.8662,N,11205.2599,W,2,07,1.15,334.3,M,-26.6,M,0000,0000*55
$GPGGA,001013.000,3328.8662,N,11205.2598,W,2,07,1.14,334.3,M,-26.6,M,0000,0000*54
$GPGGA,001014.000,3328.8662,N,11205.2597,W,2,07,1.14,334.3,M,-26.6,M,0000,0000*5C
$GPGGA,001015.000,3328.8662,N,11205.2597,W,2,07,1.14,334.3,M,-26.6,M,0000,0000*5D
$GPGGA,001016.000,3328.8661,N,11205.2598,W,2,07,1.15,334.3,M,-26.6,M,0000,0000*53
$GPGGA,001017.000,3328.8661,N,11205.2598,W,2,07,1.15,334.3,M,-26.6,M,0000,0000*52
$GPGGA,001018.000,3328.8661,N,11205.2598,W,2,07,1.15,334.4,M,-26.6,M,0000,0000*5A
$GPGGA,001019.000,3328.8663,N,11205.2597,W,2,07,1.15,334.5,M,-26.6,M,0000,0000*57
$GPGGA,001020.000,3328.8663,N,11205.2595,W,2,07,1.22,334.5,M,-26.6,M,0000,0000*5B
$GPGGA,001021.000,3328.8665,N,11205.2592,W,2,07,1.15,334.5,M,-26.6,M,0000,0000*5F
$GPGGA,001022.000,3328.8665,N,11205.2592,W,2,07,1.15,334.7,M,-26.6,M,0000,0000*5E
$GPGGA,001023.000,3328.8665,N,11205.2590,W,2,07,1.22,334.9,M,-26.6,M,0000,0000*57
$GPGGA,001024.000,3328.8665,N,11205.2589,W,2,07,1.15,334.9,M,-26.6,M,0000,0000*5C
$GPGGA,001025.000,3328.8662,N,11205.2595,W,2,07,1.15,335.6,M,-26.6,M,0000,0000*59
$GPGGA,001026.000,3328.8662,N,11205.2594,W,2,07,1.15,335.6,M,-26.6,M,0000,0000*5B
$GPGGA,001027.000,3328.8662,N,11205.2593,W,2,07,1.15,335.6,M,-26.6,M,0000,0000*5D
$GPGGA,001028.000,3328.8661,N,11205.2594,W,2,07,1.15,335.6,M,-26.6,M,0000,0000*56
$GPGGA,001029.000,3328.8661,N,11205.2593,W,2,07,1.15,335.6,M,-26.6,M,0000,0000*50
$GPGGA,001030.000,3328.8660,N,11205.2593,W,2,07,1.15,335.6,M,-26.6,M,0000,0000*59
