$GPGGA,235820.207,3328.6436,N,11205.3079,W,1,04,2.25,176.7,M,-26.6,M,,*5B
$GPGSA,A,3,17,28,13,30,,,,,,,,,2.46,2.25,0.99*0A
$GPRMC,235820.207,A,3328.6436,N,11205.3079,W,0.73,217.20,100317,,,A*76
$GPVTG,217.20,T,,M,0.73,N,1.35,K,A*38
$GPGGA,235822.000,3328.6459,N,11205.3068,W,1,04,2.25,177.0,M,-26.6,M,,*53
$GPGSA,A,3,17,28,13,30,,,,,,,,,2.46,2.25,0.99*0A
$GPGSV,2,1,06,30,74,025,41,28,63,319,39,51,50,171,,17,39,200,32*79
$GPGSV,2,2,06,13,30,311,40,01,21,103,*79
$GPRMC,235822.000,A,3328.6459,N,11205.3068,W,0.50,208.27,100317,,,A*70
$GPVTG,208.27,T,,M,0.50,N,0.93,K,A*3D
$GPGGA,235823.000,3328.6465,N,11205.3065,W,1,04,2.25,177.0,M,-26.6,M,,*50
$GPGSA,A,3,17,28,13,30,,,,,,,,,2.46,2.25,0.99*0A
$GPRMC,235823.000,A,3328.6465,N,11205.3065,W,0.25,202.64,100317,,,A*7C
$GPVTG,202.64,T,,M,0.25,N,0.47,K,A*3B
$GPGGA,235824.000,3328.6482,N,11205.3057,W,1,04,2.25,177.3,M,-26.6,M,,*5C
$GPGSA,A,3,17,28,13,30,,,,,,,,,2.46,2.25,0.99*0A
$GPRMC,235824.000,A,3328.6482,N,11205.3057,W,0.22,199.07,100317,,,A*70
$GPVTG,199.07,T,,M,0.22,N,0.40,K,A*3F
$GPGGA,235825.000,3328.6507,N,11205.3046,W,1,04,2.25,177.6,M,-26.6,M,,*54
$GPGSA,A,3,17,28,13,30,,,,,,,,,2.46,2.25,0.99*0A
$GPRMC,235825.000,A,3328.6507,N,11205.3046,W,0.05,299.67,100317,,,A*7D
$GPVTG,299.67,T,,M,0.05,N,0.10,K,A*3A
$GPGGA,235826.000,3328.6841,N,11205.2905,W,1,04,2.25,182.8,M,-26.6,M,,*53
$GPGSA,A,3,17,28,13,30,,,,,,,,,2.46,2.25,0.99*0A
$GPRMC,235826.000,A,3328.6841,N,11205.2905,W,0.19,314.24,100317,,,A*70
$GPVTG,314.24,T,,M,0.19,N,0.36,K,A*30
$GPGGA,235827.000,3328.6852,N,11205.2902,W,1,04,2.25,183.1,M,-26.6,M,,*5F
$GPGSA,A,3,17,28,13,30,,,,,,,,,2.46,2.25,0.99*0A
$GPGSV,2,1,06,30,74,025,38,28,63,319,38,51,50,171,32,17,39,200,35*70
$GPGSV,2,2,06,13,30,311,40,01,21,103,*79
$GPRMC,235827.000,A,3328.6852,N,11205.2902,W,0.26,287.31,100317,,,A*77
$GPVTG,287.31,T,,M,0.26,N,0.49,K,A*3B
$GPGGA,235828.000,3328.6864,N,11205.2897,W,1,04,2.25,183.5,M,-26.6,M,,*5C
$GPGSA,A,3,17,28,13,30,,,,,,,,,2.46,2.25,0.99*0A
$GPRMC,235828.000,A,3328.6864,N,11205.2897,W,0.19,244.22,100317,,,A*71
$GPVTG,244.22,T,,M,0.19,N,0.35,K,A*31
$GPGGA,235829.000,3328.6876,N,11205.2893,W,1,04,2.25,183.8,M,-26.6,M,,*57
$GPGSA,A,3,17,28,13,30,,,,,,,,,2.46,2.25,0.99*0A
$GPRMC,235829.000,A,3328.6876,N,11205.2893,W,0.20,253.60,100317,,,A*7D
$GPVTG,253.60,T,,M,0.20,N,0.38,K,A*36
$GPGGA,235830.000,3328.6890,N,11205.2886,W,1,04,2.25,184.2,M,-26.6,M,,*5E
$GPGSA,A,3,17,28,13,30,,,,,,,,,2.46,2.25,0.99*0A
$GPRMC,235830.000,A,3328.6890,N,11205.2886,W,0.12,275.00,100317,,,A*7A
$GPVTG,275.00,T,,M,0.12,N,0.23,K,A*3F
$GPGGA,235831.000,3328.6904,N,11205.2880,W,1,04,2.25,184.5,M,-26.6,M,,*52
$GPGSA,A,3,17,28,13,30,,,,,,,,,2.46,2.25,0.99*0A
$GPRMC,235831.000,A,3328.6904,N,11205.2880,W,0.12,301.22,100317,,,A*73
$GPVTG,301.22,T,,M,0.12,N,0.21,K,A*3F
$GPGGA,235832.000,3328.6919,N,11205.2874,W,1,04,2.25,184.9,M,-26.6,M,,*5A
$GPGSA,A,3,17,28,13,30,,,,,,,,,2.46,2.25,0.99*0A
$GPGSV,2,1,06,30,74,025,38,28,63,319,38,51,50,171,31,17,39,200,33*75
$GPGSV,2,2,06,13,30,311,42,01,21,103,*7B
$GPRMC,235832.000,A,3328.6919,N,11205.2874,W,0.19,347.49,100317,,,A*73
$GPVTG,347.49,T,,M,0.19,N,0.35,K,A*3E
$GPGGA,235833.000,3328.6930,N,11205.2869,W,1,04,4.87,185.2,M,-26.6,M,,*58
$GPGSA,A,3,17,28,13,30,,,,,,,,,8.29,4.87,6.71*07
$GPRMC,235833.000,A,3328.6930,N,11205.2869,W,0.05,345.74,100317,,,A*74
$GPVTG,345.74,T,,M,0.05,N,0.10,K,A*38
$GPGGA,235834.000,3328.6938,N,11205.2867,W,1,04,4.88,185.6,M,-26.6,M,,*52
$GPGSA,A,3,17,28,13,30,,,,,,,,,8.30,4.88,6.71*00
$GPRMC,235834.000,A,3328.6938,N,11205.2867,W,0.16,224.65,100317,,,A*71
$GPVTG,224.65,T,,M,0.16,N,0.31,K,A*3F
$GPGGA,235835.000,3328.6946,N,11205.2865,W,1,04,2.25,186.0,M,-26.6,M,,*5C
$GPGSA,A,3,17,28,13,30,,,,,,,,,2.46,2.25,0.99*0A
$GPRMC,235835.000,A,3328.6946,N,11205.2865,W,0.15,202.27,100317,,,A*7A
$GPVTG,202.27,T,,M,0.15,N,0.28,K,A*36
$GPGGA,235836.000,3328.6955,N,11205.2863,W,1,04,2.25,186.4,M,-26.6,M,,*5F
$GPGSA,A,3,17,28,13,30,,,,,,,,,2.46,2.25,0.99*0A
$GPRMC,235836.000,A,3328.6955,N,11205.2863,W,0.26,246.60,100317,,,A*7E
$GPVTG,246.60,T,,M,0.26,N,0.49,K,A*32
$GPGGA,235837.000,3328.6963,N,11205.2861,W,1,04,2.25,186.8,M,-26.6,M,,*55
$GPGSA,A,3,17,28,13,30,,,,,,,,,2.46,2.25,0.99*0A
$GPGSV,2,1,06,30,74,025,38,28,63,319,43,51,50,171,31,17,39,200,34*7E
$GPGSV,2,2,06,13,30,311,42,01,21,103,*7B
$GPRMC,235837.000,A,3328.6963,N,11205.2861,W,0.41,260.33,100317,,,A*7B
$GPVTG,260.33,T,,M,0.41,N,0.77,K,A*3C
$GPGGA,235838.000,3328.6974,N,11205.2854,W,1,04,2.25,187.2,M,-26.6,M,,*51
$GPGSA,A,3,17,28,13,30,,,,,,,,,2.46,2.25,0.99*0A
$GPRMC,235838.000,A,3328.6974,N,11205.2854,W,0.12,100.25,100317,,,A*70
$GPVTG,100.25,T,,M,0.12,N,0.22,K,A*38
$GPGGA,235839.000,3328.6984,N,11205.2849,W,1,04,2.25,187.5,M,-26.6,M,,*54
$GPGSA,A,3,17,28,13,30,,,,,,,,,2.46,2.25,0.99*0A
$GPRMC,235839.000,A,3328.6984,N,11205.2849,W,0.11,109.26,100317,,,A*7B
$GPVTG,109.26,T,,M,0.11,N,0.20,K,A*33
$GPGGA,235840.000,3328.6992,N,11205.2846,W,1,04,2.25,188.0,M,-26.6,M,,*58
$GPGSA,A,3,17,28,13,30,,,,,,,,,2.46,2.25,0.99*0A
$GPRMC,235840.000,A,3328.6992,N,11205.2846,W,0.13,184.81,100317,,,A*77
$GPVTG,184.81,T,,M,0.13,N,0.25,K,A*3C
$GPGGA,235841.000,3328.7004,N,11205.2840,W,1,04,2.25,188.3,M,-26.6,M,,*5B
$GPGSA,A,3,17,28,13,30,,,,,,,,,2.46,2.25,0.99*0A
$GPRMC,235841.000,A,3328.7004,N,11205.2840,W,0.08,175.46,100317,,,A*78
$GPVTG,175.46,T,,M,0.08,N,0.14,K,A*31
$GPGGA,235842.000,3328.7016,N,11205.2834,W,1,04,2.25,188.7,M,-26.6,M,,*5C
$GPGSA,A,3,17,28,13,30,,,,,,,,,2.46,2.25,0.99*0A
$GPGSV,2,1,06,30,74,025,40,28,63,320,42,48,45,214,27,17,39,200,36*73
$GPGSV,2,2,06,13,30,311,44,01,21,103,*7D
$GPRMC,235842.000,A,3328.7016,N,11205.2834,W,0.27,15.76,100317,,,A*42
$GPVTG,15.76,T,,M,0.27,N,0.50,K,A*08
$GPGGA,235843.000,3328.7028,N,11205.2830,W,1,04,2.25,189.0,M,-26.6,M,,*52
$GPGSA,A,3,17,28,13,30,,,,,,,,,2.46,2.25,0.99*0A
$GPRMC,235843.000,A,3328.7028,N,11205.2830,W,0.07,215.47,100317,,,A*78
$GPVTG,215.47,T,,M,0.07,N,0.13,K,A*3D
$GPGGA,235844.000,3328.7041,N,11205.2824,W,1,04,2.25,189.4,M,-26.6,M,,*5B
$GPGSA,A,3,17,28,13,30,,,,,,,,,2.46,2.25,0.99*0A
$GPRMC,235844.000,A,3328.7041,N,11205.2824,W,0.15,151.64,100317,,,A*74
$GPVTG,151.64,T,,M,0.15,N,0.27,K,A*3B
$GPGGA,235845.000,3328.7052,N,11205.2822,W,1,04,2.25,189.7,M,-26.6,M,,*5D
$GPGSA,A,3,17,28,13,30,,,,,,,,,2.46,2.25,0.99*0A
$GPRMC,235845.000,A,3328.7052,N,11205.2822,W,0.24,272.57,100317,,,A*71
$GPVTG,272.57,T,,M,0.24,N,0.44,K,A*3E
$GPGGA,235846.000,3328.7063,N,11205.2817,W,1,04,2.25,190.1,M,-26.6,M,,*54
$GPGSA,A,3,17,28,13,30,,,,,,,,,2.45,2.25,0.99*09
$GPRMC,235846.000,A,3328.7063,N,11205.2817,W,0.11,309.86,100317,,,A*71
$GPVTG,309.86,T,,M,0.11,N,0.20,K,A*3B
$GPGGA,235847.000,3328.7072,N,11205.2813,W,1,04,2.25,190.5,M,-26.6,M,,*55
$GPGSA,A,3,17,28,13,30,,,,,,,,,2.46,2.25,0.99*0A
$GPGSV,2,1,07,30,74,026,37,28,63,320,41,48,45,214,29,17,39,200,32*78
$GPGSV,2,2,07,13,30,311,42,01,21,103,,07,,,22*7D
$GPRMC,235847.000,A,3328.7072,N,11205.2813,W,0.10,16.55,100317,,,A*46
$GPVTG,16.55,T,,M,0.10,N,0.18,K,A*02
$GPGGA,235848.000,3328.7084,N,11205.2808,W,1,04,2.25,190.9,M,-26.6,M,,*55
$GPGSA,A,3,17,28,13,30,,,,,,,,,2.45,2.25,0.99*09
$GPRMC,235848.000,A,3328.7084,N,11205.2808,W,0.11,11.61,100317,,,A*4B
$GPVTG,11.61,T,,M,0.11,N,0.21,K,A*09
$GPGGA,235849.000,3328.7096,N,11205.2803,W,1,04,4.90,191.3,M,-26.6,M,,*5F
$GPGSA,A,3,17,28,13,30,,,,,,,,,8.36,4.90,6.78*06
$GPRMC,235849.000,A,3328.7096,N,11205.2803,W,0.09,64.98,100317,,,A*4F
$GPVTG,64.98,T,,M,0.09,N,0.18,K,A*0E
$GPGGA,235850.000,3328.7107,N,11205.2801,W,1,04,2.25,191.6,M,-26.6,M,,*51
$GPGSA,A,3,17,28,13,30,,,,,,,,,2.45,2.25,0.99*09
$GPRMC,235850.000,A,3328.7107,N,11205.2801,W,0.16,353.03,100317,,,A*77
$GPVTG,353.03,T,,M,0.16,N,0.29,K,A*37
$GPGGA,235851.000,3328.7117,N,11205.2799,W,1,04,4.90,192.0,M,-26.6,M,,*52
$GPGSA,A,3,17,28,13,30,,,,,,,,,8.37,4.90,6.79*06
$GPRMC,235851.000,A,3328.7117,N,11205.2799,W,0.11,354.61,100317,,,A*7D
$GPVTG,354.61,T,,M,0.11,N,0.20,K,A*3A
$GPGGA,235852.000,3328.7126,N,11205.2799,W,1,04,4.90,192.4,M,-26.6,M,,*57
$GPGSA,A,3,17,28,13,30,,,,,,,,,8.38,4.90,6.79*09
$GPGSV,2,1,07,30,74,026,39,28,63,320,40,48,45,214,32,17,39,200,36*79
$GPGSV,2,2,07,13,30,311,41,01,21,103,,07,,,23*7F
$GPRMC,235852.000,A,3328.7126,N,11205.2799,W,0.22,231.87,100317,,,A*76
$GPVTG,231.87,T,,M,0.22,N,0.42,K,A*34
$GPGGA,235853.000,3328.7137,N,11205.2796,W,1,04,2.25,192.8,M,-26.6,M,,*5D
$GPGSA,A,3,17,28,13,30,,,,,,,,,2.45,2.25,0.99*09
$GPRMC,235853.000,A,3328.7137,N,11205.2796,W,0.20,257.84,100317,,,A*79
$GPVTG,257.84,T,,M,0.20,N,0.36,K,A*36
$GPGGA,235854.000,3328.7148,N,11205.2792,W,1,04,2.25,193.2,M,-26.6,M,,*5D
$GPGSA,A,3,17,28,13,30,,,,,,,,,2.45,2.25,0.99*09
$GPRMC,235854.000,A,3328.7148,N,11205.2792,W,0.13,217.50,100317,,,A*7F
$GPVTG,217.50,T,,M,0.13,N,0.24,K,A*38
$GPGGA,235855.000,3328.7157,N,11205.2789,W,1,04,2.25,193.6,M,-26.6,M,,*5C
$GPGSA,A,3,17,28,13,30,,,,,,,,,2.45,2.25,0.99*09
$GPRMC,235855.000,A,3328.7157,N,11205.2789,W,0.33,185.57,100317,,,A*77
$GPVTG,185.57,T,,M,0.33,N,0.62,K,A*37
$GPGGA,235856.000,3328.7166,N,11205.2785,W,1,04,2.25,194.0,M,-26.6,M,,*50
$GPGSA,A,3,17,28,13,30,,,,,,,,,2.45,2.25,0.99*09
$GPRMC,235856.000,A,3328.7166,N,11205.2785,W,0.13,146.95,100317,,,A*79
$GPVTG,146.95,T,,M,0.13,N,0.24,K,A*36
$GPGGA,235857.000,3328.7174,N,11205.2783,W,1,04,2.24,194.4,M,-26.6,M,,*51
$GPGSA,A,3,17,28,13,30,,,,,,,,,2.45,2.24,0.99*08
$GPGSV,2,1,08,30,74,026,38,28,63,320,42,48,45,214,34,17,39,200,37*72
$GPGSV,2,2,08,13,30,311,41,01,21,103,22,07,,,22,08,,,30*7A
$GPRMC,235857.000,A,3328.7174,N,11205.2783,W,0.14,170.54,100317,,,A*72
$GPVTG,170.54,T,,M,0.14,N,0.26,K,A*3B
$GPGGA,235858.000,3328.7182,N,11205.2781,W,1,04,2.24,194.8,M,-26.6,M,,*59
$GPGSA,A,3,17,28,13,30,,,,,,,,,2.45,2.24,0.99*08
$GPRMC,235858.000,A,3328.7182,N,11205.2781,W,0.15,191.10,100317,,,A*78
$GPVTG,191.10,T,,M,0.15,N,0.27,K,A*34
$GPGGA,235859.000,3328.7190,N,11205.2778,W,1,04,2.24,195.3,M,-26.6,M,,*57
$GPGSA,A,3,17,28,13,30,,,,,,,,,2.45,2.24,0.99*08
$GPRMC,235859.000,A,3328.7190,N,11205.2778,W,0.15,204.90,100317,,,A*7B
$GPVTG,204.90,T,,M,0.15,N,0.28,K,A*3C
$GPGGA,235900.000,3328.7199,N,11205.2773,W,1,04,2.24,195.7,M,-26.6,M,,*5C
$GPGSA,A,3,17,28,13,30,,,,,,,,,2.45,2.24,0.99*08
$GPRMC,235900.000,A,3328.7199,N,11205.2773,W,0.29,147.94,100317,,,A*7B
$GPVTG,147.94,T,,M,0.29,N,0.53,K,A*3F
$GPGGA,235901.000,3328.7208,N,11205.2769,W,1,04,2.24,196.1,M,-26.6,M,,*58
$GPGSA,A,3,17,28,13,30,,,,,,,,,2.45,2.24,0.99*08
$GPRMC,235901.000,A,3328.7208,N,11205.2769,W,0.23,170.49,100317,,,A*74
$GPVTG,170.49,T,,M,0.23,N,0.42,K,A*31
$GPGGA,235902.000,3328.7204,N,11205.2771,W,1,04,2.24,196.2,M,-26.6,M,,*5D
$GPGSA,A,3,17,28,13,30,,,,,,,,,2.45,2.24,0.99*08
$GPGSV,2,1,08,30,74,026,36,28,63,320,32,48,45,214,37,17,39,200,21*7F
$GPGSV,2,2,08,13,30,311,42,01,21,103,17,07,,,31,08,,,26*7A
$GPRMC,235902.000,A,3328.7204,N,11205.2771,W,0.22,201.57,100317,,,A*79
$GPVTG,201.57,T,,M,0.22,N,0.41,K,A*39
$GPGGA,235903.000,3328.7200,N,11205.2772,W,1,04,2.24,196.3,M,-26.6,M,,*5A
$GPGSA,A,3,17,28,13,30,,,,,,,,,2.45,2.24,0.99*08
$GPRMC,235903.000,A,3328.7200,N,11205.2772,W,0.24,194.62,100317,,,A*70
$GPVTG,194.62,T,,M,0.24,N,0.45,K,A*32
$GPGGA,235904.000,3328.7209,N,11205.2768,W,1,04,2.24,196.7,M,-26.6,M,,*5B
$GPGSA,A,3,17,28,13,30,,,,,,,,,2.45,2.24,0.99*08
$GPRMC,235904.000,A,3328.7209,N,11205.2768,W,0.37,200.45,100317,,,A*7C
$GPVTG,200.45,T,,M,0.37,N,0.69,K,A*35
$GPGGA,235905.000,3328.7213,N,11205.2766,W,1,04,2.24,197.2,M,-26.6,M,,*5B
$GPGSA,A,3,17,28,13,30,,,,,,,,,2.45,2.24,0.99*08
$GPRMC,235905.000,A,3328.7213,N,11205.2766,W,0.70,191.55,100317,,,A*71
$GPVTG,191.55,T,,M,0.70,N,1.29,K,A*39
$GPGGA,235906.000,3328.7218,N,11205.2765,W,1,04,2.24,197.6,M,-26.6,M,,*54
$GPGSA,A,3,17,28,13,30,,,,,,,,,2.45,2.24,0.99*08
$GPRMC,235906.000,A,3328.7218,N,11205.2765,W,0.58,204.46,100317,,,A*7D
$GPVTG,204.46,T,,M,0.58,N,1.08,K,A*3D
$GPGGA,235907.000,3328.7225,N,11205.2763,W,1,04,2.24,198.1,M,-26.6,M,,*55
$GPGSA,A,3,17,28,13,30,,,,,,,,,2.45,2.24,0.99*08
$GPGSV,2,1,08,30,74,026,37,28,63,320,39,48,45,214,34,17,40,200,36*7E
$GPGSV,2,2,08,13,30,311,42,01,21,103,22,07,,,24,08,,,26*78
$GPRMC,235907.000,A,3328.7225,N,11205.2763,W,0.64,209.00,100317,,,A*74
$GPVTG,209.00,T,,M,0.64,N,1.19,K,A*3D
$GPGGA,235908.000,3328.7230,N,11205.2762,W,1,04,2.24,198.6,M,-26.6,M,,*58
$GPGSA,A,3,17,28,13,30,,,,,,,,,2.45,2.24,0.99*08
$GPRMC,235908.000,A,3328.7230,N,11205.2762,W,0.58,201.20,100317,,,A*7B
$GPVTG,201.20,T,,M,0.58,N,1.07,K,A*37
$GPGGA,235909.000,3328.7236,N,11205.2761,W,1,04,2.24,199.1,M,-26.6,M,,*5A
$GPGSA,A,3,17,28,13,30,,,,,,,,,2.45,2.24,0.99*08
$GPRMC,235909.000,A,3328.7236,N,11205.2761,W,0.40,214.04,100317,,,A*74
$GPVTG,214.04,T,,M,0.40,N,0.75,K,A*38
$GPGGA,235910.000,3328.7243,N,11205.2759,W,1,04,2.24,199.5,M,-26.6,M,,*5F
$GPGSA,A,3,17,28,13,30,,,,,,,,,2.45,2.24,0.99*08
$GPRMC,235910.000,A,3328.7243,N,11205.2759,W,0.36,219.12,100317,,,A*7E
$GPVTG,219.12,T,,M,0.36,N,0.66,K,A*31
$GPGGA,235911.000,3328.7253,N,11205.2756,W,1,04,2.24,199.9,M,-26.6,M,,*5C
$GPGSA,A,3,17,28,13,30,,,,,,,,,2.45,2.24,0.99*08
$GPRMC,235911.000,A,3328.7253,N,11205.2756,W,0.28,208.43,100317,,,A*7A
$GPVTG,208.43,T,,M,0.28,N,0.51,K,A*3E
$GPGGA,235912.000,3328.7263,N,11205.2751,W,1,04,2.24,200.3,M,-26.6,M,,*52
$GPGSA,A,3,17,28,13,30,,,,,,,,,2.45,2.24,0.99*08
$GPGSV,2,1,08,30,74,026,36,28,63,320,40,48,45,214,33,17,40,200,34*74
$GPGSV,2,2,08,13,30,311,43,01,21,103,23,07,,,24,08,,,30*7F
$GPRMC,235912.000,A,3328.7263,N,11205.2751,W,0.05,349.71,100317,,,A*77
$GPVTG,349.71,T,,M,0.05,N,0.09,K,A*39
$GPGGA,235913.000,3328.7270,N,11205.2752,W,1,04,4.93,200.8,M,-26.6,M,,*53
$GPGSA,A,3,17,28,13,30,,,,,,,,,8.47,4.93,6.89*0D
$GPRMC,235913.000,A,3328.7270,N,11205.2752,W,0.33,261.25,100317,,,A*78
$GPVTG,261.25,T,,M,0.33,N,0.62,K,A*3B
$GPGGA,235914.000,3328.7279,N,11205.2749,W,1,04,2.24,201.2,M,-26.6,M,,*56
$GPGSA,A,3,17,28,13,30,,,,,,,,,2.45,2.24,0.99*08
$GPRMC,235914.000,A,3328.7279,N,11205.2749,W,0.20,215.72,100317,,,A*7F
$GPVTG,215.72,T,,M,0.20,N,0.38,K,A*37
$GPGGA,235915.000,3328.7288,N,11205.2747,W,1,04,2.24,201.5,M,-26.6,M,,*50
$GPGSA,A,3,17,28,13,30,,,,,,,,,2.45,2.24,0.99*08
$GPRMC,235915.000,A,3328.7288,N,11205.2747,W,0.22,213.11,100317,,,A*7F
$GPVTG,213.11,T,,M,0.22,N,0.40,K,A*39
$GPGGA,235916.000,3328.7299,N,11205.2744,W,1,04,2.24,201.9,M,-26.6,M,,*5C
$GPGSA,A,3,17,28,13,30,,,,,,,,,2.45,2.24,0.99*08
$GPRMC,235916.000,A,3328.7299,N,11205.2744,W,0.11,180.21,100317,,,A*75
$GPVTG,180.21,T,,M,0.11,N,0.20,K,A*35
$GPGGA,235917.000,3328.7308,N,11205.2742,W,1,04,2.24,202.3,M,-26.6,M,,*5B
$GPGSA,A,3,17,28,13,30,,,,,,,,,2.45,2.24,0.99*08
$GPGSV,3,1,09,30,74,026,36,28,63,320,41,48,45,214,34,17,40,200,29*7E
$GPGSV,3,2,09,13,30,311,41,01,21,103,22,07,,,23,08,,,32*79
$GPGSV,3,3,09,11,,,25*77
$GPRMC,235917.000,A,3328.7308,N,11205.2742,W,0.21,167.36,100317,,,A*77
$GPVTG,167.36,T,,M,0.21,N,0.39,K,A*31
$GPGGA,235918.000,3328.7316,N,11205.2740,W,1,04,2.24,202.7,M,-26.6,M,,*5D
$GPGSA,A,3,17,28,13,30,,,,,,,,,2.45,2.24,0.99*08
$GPRMC,235918.000,A,3328.7316,N,11205.2740,W,0.22,157.05,100317,,,A*75
$GPVTG,157.05,T,,M,0.22,N,0.40,K,A*3F
$GPGGA,235919.000,3328.7326,N,11205.2738,W,1,04,2.24,203.1,M,-26.6,M,,*57
$GPGSA,A,3,17,28,13,30,,,,,,,,,2.45,2.24,0.99*08
$GPRMC,235919.000,A,3328.7326,N,11205.2738,W,0.08,195.99,100317,,,A*7B
$GPVTG,195.99,T,,M,0.08,N,0.15,K,A*3C
$GPGGA,235920.000,3328.7335,N,11205.2736,W,1,04,2.24,203.4,M,-26.6,M,,*54
$GPGSA,A,3,17,28,13,30,,,,,,,,,2.45,2.24,0.99*08
$GPRMC,235920.000,A,3328.7335,N,11205.2736,W,0.10,179.84,100317,,,A*7A
$GPVTG,179.84,T,,M,0.10,N,0.18,K,A*36
$GPGGA,235921.000,3328.7335,N,11205.2738,W,1,04,2.24,203.5,M,-26.6,M,,*5A
$GPGSA,A,3,17,28,13,30,,,,,,,,,2.45,2.24,0.99*08
$GPRMC,235921.000,A,3328.7335,N,11205.2738,W,0.12,277.28,100317,,,A*7C
$GPVTG,277.28,T,,M,0.12,N,0.23,K,A*37
$GPGGA,235922.000,3328.7334,N,11205.2739,W,1,04,2.24,203.6,M,-26.6,M,,*5A
$GPGSA,A,3,17,28,13,30,,,,,,,,,2.45,2.24,0.99*08
$GPGSV,3,1,09,30,74,027,36,28,63,321,40,48,45,214,33,17,40,200,22*73
$GPGSV,3,2,09,13,30,311,39,01,21,103,20,07,,,29,08,,,33*7F
$GPGSV,3,3,09,11,,,24*76
$GPRMC,235922.000,A,3328.7334,N,11205.2739,W,0.04,107.16,100317,,,A*71
$GPVTG,107.16,T,,M,0.04,N,0.08,K,A*30
$GPGGA,235923.000,3328.7332,N,11205.2741,W,1,04,2.24,203.7,M,-26.6,M,,*53
$GPGSA,A,3,17,28,13,30,,,,,,,,,2.45,2.24,0.99*08
$GPRMC,235923.000,A,3328.7332,N,11205.2741,W,0.08,55.75,100317,,,A*46
$GPVTG,55.75,T,,M,0.08,N,0.15,K,A*03
$GPGGA,235924.000,3328.7341,N,11205.2740,W,1,04,2.24,204.1,M,-26.6,M,,*50
$GPGSA,A,3,17,28,13,30,,,,,,,,,2.45,2.24,0.99*08
$GPRMC,235924.000,A,3328.7341,N,11205.2740,W,0.04,11.56,100317,,,A*49
$GPVTG,11.56,T,,M,0.04,N,0.08,K,A*02
$GPGGA,235925.000,3328.7338,N,11205.2743,W,1,04,4.95,204.2,M,-26.6,M,,*53
$GPGSA,A,3,17,28,13,30,,,,,,,,,8.53,4.95,6.94*02
$GPRMC,235925.000,A,3328.7338,N,11205.2743,W,0.06,267.14,100317,,,A*72
$GPVTG,267.14,T,,M,0.06,N,0.11,K,A*3D
$GPGGA,235926.000,3328.7347,N,11205.2741,W,1,04,2.24,204.6,M,-26.6,M,,*52
$GPGSA,A,3,17,28,13,30,,,,,,,,,2.45,2.24,0.99*08
$GPRMC,235926.000,A,3328.7347,N,11205.2741,W,0.06,227.63,100317,,,A*7F
$GPVTG,227.63,T,,M,0.06,N,0.11,K,A*39
$GPGGA,235927.000,3328.7357,N,11205.2738,W,1,04,2.24,205.0,M,-26.6,M,,*5B
$GPGSA,A,3,17,28,13,30,,,,,,,,,2.45,2.24,0.99*08
$GPGSV,3,1,09,30,74,027,35,28,63,321,41,48,45,214,37,17,40,200,29*7E
$GPGSV,3,2,09,13,30,311,41,01,22,102,18,07,,,23,08,,,31*71
$GPGSV,3,3,09,11,,,25*77
$GPRMC,235927.000,A,3328.7357,N,11205.2738,W,0.03,160.33,100317,,,A*71
$GPVTG,160.33,T,,M,0.03,N,0.06,K,A*3F
$GPGGA,235928.000,3328.7355,N,11205.2739,W,1,04,2.24,205.1,M,-26.6,M,,*56
$GPGSA,A,3,17,28,13,30,,,,,,,,,2.45,2.24,0.99*08
$GPRMC,235928.000,A,3328.7355,N,11205.2739,W,0.17,116.71,100317,,,A*7F
$GPVTG,116.71,T,,M,0.17,N,0.32,K,A*3A
$GPGGA,235929.000,3328.7353,N,11205.2741,W,1,04,2.24,205.2,M,-26.6,M,,*5D
$GPGSA,A,3,17,28,13,30,,,,,,,,,2.45,2.24,0.99*08
$GPRMC,235929.000,A,3328.7353,N,11205.2741,W,0.08,134.34,100317,,,A*78
$GPVTG,134.34,T,,M,0.08,N,0.15,K,A*30
$GPGGA,235930.000,3328.7364,N,11205.2738,W,1,04,2.24,205.6,M,-26.6,M,,*5B
$GPGSA,A,3,17,28,13,30,,,,,,,,,2.45,2.24,0.99*08
$GPRMC,235930.000,A,3328.7364,N,11205.2738,W,0.04,86.01,100317,,,A*48
$GPVTG,86.01,T,,M,0.04,N,0.07,K,A*01
$GPGGA,235931.000,3328.7373,N,11205.2734,W,1,04,2.24,206.0,M,-26.6,M,,*55
$GPGSA,A,3,17,28,13,30,,,,,,,,,2.44,2.24,0.99*09
$GPRMC,235931.000,A,3328.7373,N,11205.2734,W,0.01,348.89,100317,,,A*77
$GPVTG,348.89,T,,M,0.01,N,0.02,K,A*30
$GPGGA,235932.000,3328.7381,N,11205.2733,W,1,04,4.96,206.5,M,-26.6,M,,*56
$GPGSA,A,3,17,28,13,30,,,,,,,,,8.55,4.96,6.97*04
$GPGSV,3,1,09,30,74,027,34,28,63,321,40,48,45,214,32,17,40,200,38*7B
$GPGSV,3,2,09,13,30,311,44,01,22,102,18,07,,,34,08,,,28*7A
$GPGSV,3,3,09,11,,,25*77
$GPRMC,235932.000,A,3328.7381,N,11205.2733,W,0.16,257.35,100317,,,A*70
$GPVTG,257.35,T,,M,0.16,N,0.29,K,A*37
$GPGGA,235933.000,3328.7403,N,11205.2724,W,1,05,1.42,207.0,M,-26.6,M,,*55
$GPGSA,A,3,17,28,13,30,08,,,,,,,,1.68,1.42,0.89*0E
$GPRMC,235933.000,A,3328.7403,N,11205.2724,W,0.11,239.58,100317,,,A*7E
$GPVTG,239.58,T,,M,0.11,N,0.21,K,A*3B
$GPGGA,235934.000,3328.7424,N,11205.2715,W,1,05,1.42,207.4,M,-26.6,M,,*51
$GPGSA,A,3,17,28,13,30,08,,,,,,,,1.68,1.42,0.89*0E
$GPRMC,235934.000,A,3328.7424,N,11205.2715,W,0.16,310.33,100317,,,A*7E
$GPVTG,310.33,T,,M,0.16,N,0.29,K,A*33
$GPGGA,235935.000,3328.7438,N,11205.2709,W,1,05,1.42,207.8,M,-26.6,M,,*5C
$GPGSA,A,3,17,28,13,30,08,,,,,,,,1.68,1.42,0.89*0E
$GPRMC,235935.000,A,3328.7438,N,11205.2709,W,0.15,14.68,100317,,,A*45
$GPVTG,14.68,T,,M,0.15,N,0.28,K,A*08
$GPGGA,235936.000,3328.7450,N,11205.2706,W,1,05,1.45,208.2,M,-26.6,M,,*5C
$GPGSA,A,3,17,28,13,30,08,,,,,,,,2.45,1.45,1.97*0B
$GPRMC,235936.000,A,3328.7450,N,11205.2706,W,0.19,330.61,100317,,,A*77
$GPVTG,330.61,T,,M,0.19,N,0.34,K,A*35
$GPGGA,235937.000,3328.7457,N,11205.2703,W,1,05,1.42,208.7,M,-26.6,M,,*5D
$GPGSA,A,3,17,28,13,30,08,,,,,,,,1.68,1.42,0.89*0E
$GPGSV,3,1,09,30,74,027,35,28,63,321,40,48,45,214,35,17,40,200,33*76
$GPGSV,3,2,09,13,30,311,40,01,22,102,18,08,18,041,30,07,,,31*4E
$GPGSV,3,3,09,11,,,23*71
$GPRMC,235937.000,A,3328.7457,N,11205.2703,W,0.17,103.41,100317,,,A*7A
$GPVTG,103.41,T,,M,0.17,N,0.32,K,A*3D
$GPGGA,235938.000,3328.7464,N,11205.2701,W,1,05,1.42,209.1,M,-26.6,M,,*57
$GPGSA,A,3,17,28,13,30,08,,,,,,,,1.68,1.42,0.89*0E
$GPRMC,235938.000,A,3328.7464,N,11205.2701,W,0.21,102.98,100317,,,A*77
$GPVTG,102.98,T,,M,0.21,N,0.39,K,A*36
$GPGGA,235939.000,3328.7472,N,11205.2700,W,1,05,1.42,209.6,M,-26.6,M,,*57
$GPGSA,A,3,17,28,13,30,08,,,,,,,,1.68,1.42,0.89*0E
$GPRMC,235939.000,A,3328.7472,N,11205.2700,W,0.11,35.35,100317,,,A*41
$GPVTG,35.35,T,,M,0.11,N,0.20,K,A*0F
$GPGGA,235940.000,3328.7479,N,11205.2698,W,1,05,1.42,210.1,M,-26.6,M,,*5D
$GPGSA,A,3,17,28,13,30,08,,,,,,,,1.68,1.42,0.89*0E
$GPRMC,235940.000,A,3328.7479,N,11205.2698,W,0.16,28.13,100317,,,A*4B
$GPVTG,28.13,T,,M,0.16,N,0.29,K,A*09
$GPGGA,235941.000,3328.7484,N,11205.2698,W,1,05,1.42,210.5,M,-26.6,M,,*5A
$GPGSA,A,3,17,28,13,30,08,,,,,,,,1.68,1.42,0.89*0E
$GPRMC,235941.000,A,3328.7484,N,11205.2698,W,0.11,258.38,100317,,,A*73
$GPVTG,258.38,T,,M,0.11,N,0.20,K,A*3B
$GPGGA,235942.000,3328.7486,N,11205.2699,W,1,05,1.42,211.1,M,-26.6,M,,*5F
$GPGSA,A,3,17,28,13,30,08,,,,,,,,1.68,1.42,0.89*0E
$GPGSV,3,1,09,30,74,027,34,28,63,321,39,48,45,214,35,17,40,200,40*7D
$GPGSV,3,2,09,13,31,310,45,01,22,102,20,08,18,041,29,07,,,29*41
$GPGSV,3,3,09,11,,,17*76
$GPRMC,235942.000,A,3328.7486,N,11205.2699,W,0.09,205.31,100317,,,A*7B
$GPVTG,205.31,T,,M,0.09,N,0.17,K,A*37
$GPGGA,235943.000,3328.7487,N,11205.2699,W,1,05,1.42,211.6,M,-26.6,M,,*58
$GPGSA,A,3,17,28,13,30,08,,,,,,,,1.68,1.42,0.89*0E
$GPRMC,235943.000,A,3328.7487,N,11205.2699,W,0.07,81.65,100317,,,A*4A
$GPVTG,81.65,T,,M,0.07,N,0.12,K,A*03
$GPGGA,235944.000,3328.7490,N,11205.2700,W,1,05,1.42,212.1,M,-26.6,M,,*5C
$GPGSA,A,3,17,28,13,30,08,,,,,,,,1.68,1.42,0.89*0E
$GPRMC,235944.000,A,3328.7490,N,11205.2700,W,0.12,65.72,100317,,,A*42
$GPVTG,65.72,T,,M,0.12,N,0.22,K,A*08
$GPGGA,235945.000,3328.7493,N,11205.2701,W,1,05,1.42,212.6,M,-26.6,M,,*58
$GPGSA,A,3,17,28,13,30,08,,,,,,,,1.68,1.42,0.89*0E
$GPRMC,235945.000,A,3328.7493,N,11205.2701,W,0.05,64.38,100317,,,A*48
$GPVTG,64.38,T,,M,0.05,N,0.08,K,A*09
$GPGGA,235946.000,3328.7497,N,11205.2705,W,1,05,1.42,213.2,M,-26.6,M,,*5E
$GPGSA,A,3,17,28,13,30,08,,,,,,,,1.68,1.42,0.89*0E
$GPRMC,235946.000,A,3328.7497,N,11205.2705,W,0.23,329.85,100317,,,A*73
$GPVTG,329.85,T,,M,0.23,N,0.43,K,A*3E
$GPGGA,235947.000,3328.7502,N,11205.2707,W,1,05,1.42,213.7,M,-26.6,M,,*55
$GPGSA,A,3,17,28,13,30,08,,,,,,,,1.68,1.42,0.89*0E
$GPGSV,3,1,09,30,74,027,37,28,63,321,39,48,45,214,39,17,40,200,39*7C
$GPGSV,3,2,09,13,31,310,44,01,22,102,21,08,18,041,22,07,,,23*40
$GPGSV,3,3,09,11,,,25*77
$GPRMC,235947.000,A,3328.7502,N,11205.2707,W,0.36,290.43,100317,,,A*70
$GPVTG,290.43,T,,M,0.36,N,0.66,K,A*34
$GPGGA,235948.000,3328.7505,N,11205.2709,W,1,05,1.42,214.3,M,-26.6,M,,*50
$GPGSA,A,3,17,28,13,30,08,,,,,,,,1.68,1.42,0.89*0E
$GPRMC,235948.000,A,3328.7505,N,11205.2709,W,0.46,282.19,100317,,,A*7D
$GPVTG,282.19,T,,M,0.46,N,0.86,K,A*31
$GPGGA,235949.000,3328.7508,N,11205.2711,W,1,05,1.42,214.7,M,-26.6,M,,*51
$GPGSA,A,3,17,28,13,30,08,,,,,,,,1.68,1.42,0.89*0E
$GPRMC,235949.000,A,3328.7508,N,11205.2711,W,0.38,266.56,100317,,,A*70
$GPVTG,266.56,T,,M,0.38,N,0.70,K,A*30
$GPGGA,235950.000,3328.7511,N,11205.2711,W,1,05,1.42,215.3,M,-26.6,M,,*54
$GPGSA,A,3,17,28,13,30,08,,,,,,,,1.68,1.42,0.89*0E
$GPRMC,235950.000,A,3328.7511,N,11205.2711,W,0.27,258.27,100317,,,A*75
$GPVTG,258.27,T,,M,0.27,N,0.50,K,A*37
$GPGGA,235951.000,3328.7514,N,11205.2712,W,1,05,1.42,215.8,M,-26.6,M,,*58
$GPGSA,A,3,17,28,13,30,08,,,,,,,,1.68,1.42,0.89*0E
$GPRMC,235951.000,A,3328.7514,N,11205.2712,W,0.24,247.13,100317,,,A*78
$GPVTG,247.13,T,,M,0.24,N,0.45,K,A*39
$GPGGA,235952.000,3328.7518,N,11205.2712,W,1,05,1.42,216.3,M,-26.6,M,,*5F
$GPGSA,A,3,17,28,13,30,08,,,,,,,,1.68,1.42,0.89*0E
$GPGSV,3,1,09,30,74,027,37,28,63,321,41,48,45,214,36,17,40,200,39*7C
$GPGSV,3,2,09,13,31,310,39,01,22,102,20,08,18,041,19,07,,,24*44
$GPGSV,3,3,09,11,,,21*73
$GPRMC,235952.000,A,3328.7518,N,11205.2712,W,0.13,246.44,100317,,,A*70
$GPVTG,246.44,T,,M,0.13,N,0.24,K,A*39
$GPGGA,235953.000,3328.7521,N,11205.2712,W,1,05,1.42,216.7,M,-26.6,M,,*50
$GPGSA,A,3,17,28,13,30,08,,,,,,,,1.68,1.42,0.89*0E
$GPRMC,235953.000,A,3328.7521,N,11205.2712,W,0.12,203.34,100317,,,A*7C
$GPVTG,203.34,T,,M,0.12,N,0.22,K,A*38
$GPGGA,235954.000,3328.7524,N,11205.2712,W,1,05,1.42,217.2,M,-26.6,M,,*56
$GPGSA,A,3,17,28,13,30,08,,,,,,,,1.68,1.42,0.89*0E
$GPRMC,235954.000,A,3328.7524,N,11205.2712,W,0.10,154.05,100317,,,A*7F
$GPVTG,154.05,T,,M,0.10,N,0.18,K,A*30
$GPGGA,235955.000,3328.7526,N,11205.2711,W,1,05,1.42,217.7,M,-26.6,M,,*53
$GPGSA,A,3,17,28,13,30,08,,,,,,,,1.68,1.42,0.89*0E
$GPRMC,235955.000,A,3328.7526,N,11205.2711,W,0.18,144.58,100317,,,A*7E
$GPVTG,144.58,T,,M,0.18,N,0.33,K,A*38
$GPGGA,235956.000,3328.7530,N,11205.2711,W,1,05,1.42,218.1,M,-26.6,M,,*5E
$GPGSA,A,3,17,28,13,30,08,,,,,,,,1.68,1.42,0.89*0E
$GPRMC,235956.000,A,3328.7530,N,11205.2711,W,0.11,243.22,100317,,,A*7A
$GPVTG,243.22,T,,M,0.11,N,0.21,K,A*3B
$GPGGA,235957.000,3328.7533,N,11205.2711,W,1,05,1.42,218.5,M,-26.6,M,,*58
$GPGSA,A,3,17,28,13,30,08,,,,,,,,1.68,1.42,0.89*0E
$GPGSV,3,1,09,30,74,027,36,28,63,321,41,48,45,214,36,17,40,200,34*70
$GPGSV,3,2,09,13,31,310,38,01,22,102,18,08,18,041,21,07,,,24*45
$GPGSV,3,3,09,11,,,24*76
$GPRMC,235957.000,A,3328.7533,N,11205.2711,W,0.05,207.26,100317,,,A*79
$GPVTG,207.26,T,,M,0.05,N,0.10,K,A*38
$GPGGA,235958.000,3328.7538,N,11205.2708,W,1,05,1.42,218.9,M,-26.6,M,,*58
$GPGSA,A,3,17,28,13,30,08,,,,,,,,1.68,1.42,0.89*0E
$GPRMC,235958.000,A,3328.7538,N,11205.2708,W,0.19,82.48,100317,,,A*4F
$GPVTG,82.48,T,,M,0.19,N,0.36,K,A*06
$GPGGA,235959.000,3328.7542,N,11205.2707,W,1,05,1.42,219.3,M,-26.6,M,,*50
$GPGSA,A,3,17,28,13,30,08,,,,,,,,1.68,1.42,0.89*0E
$GPRMC,235959.000,A,3328.7542,N,11205.2707,W,0.12,77.59,100317,,,A*4D
$GPVTG,77.59,T,,M,0.12,N,0.23,K,A*03
$GPGGA,000000.000,3328.7546,N,11205.2707,W,1,05,1.42,219.6,M,-26.6,M,,*50
$GPGSA,A,3,17,28,13,30,08,,,,,,,,1.68,1.42,0.89*0E
$GPRMC,000000.000,A,3328.7546,N,11205.2707,W,0.13,49.38,110317,,,A*42
$GPVTG,49.38,T,,M,0.13,N,0.24,K,A*0F
$GPGGA,000001.000,3328.7551,N,11205.2709,W,1,05,1.42,219.9,M,-26.6,M,,*56
$GPGSA,A,3,17,28,13,30,08,,,,,,,,1.68,1.42,0.89*0E
$GPRMC,000001.000,A,3328.7551,N,11205.2709,W,0.35,324.36,110317,,,A*79
$GPVTG,324.36,T,,M,0.35,N,0.64,K,A*39
$GPGGA,000002.000,3328.7556,N,11205.2708,W,1,05,1.42,220.4,M,-26.6,M,,*54
$GPGSA,A,3,17,28,13,30,08,,,,,,,,1.68,1.42,0.89*0E
$GPGSV,3,1,09,30,74,028,36,28,63,321,42,48,45,214,39,17,40,200,41*71
$GPGSV,3,2,09,13,31,310,40,01,22,102,16,08,18,041,21,07,,,21*41
$GPGSV,3,3,09,11,,,20*72
$GPRMC,000002.000,A,3328.7556,N,11205.2708,W,0.25,333.91,110317,,,A*76
$GPVTG,333.91,T,,M,0.25,N,0.46,K,A*33
$GPGGA,000003.000,3328.7559,N,11205.2708,W,2,05,1.42,220.8,M,-26.6,M,0000,0000*55
$GPGSA,A,3,17,28,13,30,08,,,,,,,,1.68,1.42,0.89*0E
$GPRMC,000003.000,A,3328.7559,N,11205.2708,W,0.13,13.16,110317,,,D*46
$GPVTG,13.16,T,,M,0.13,N,0.25,K,D*08
$GPGGA,000004.000,3328.7562,N,11205.2708,W,2,05,1.45,221.3,M,-26.6,M,0000,0000*57
$GPGSA,A,3,17,28,13,30,08,,,,,,,,2.45,1.45,1.97*0B
$GPRMC,000004.000,A,3328.7562,N,11205.2708,W,0.13,221.24,110317,,,D*7B
$GPVTG,221.24,T,,M,0.13,N,0.23,K,D*3C
$GPGGA,000005.000,3328.7566,N,11205.2708,W,2,05,1.42,221.8,M,-26.6,M,0000,0000*5E
$GPGSA,A,3,17,28,13,30,08,,,,,,,,1.68,1.42,0.89*0E
$GPRMC,000005.000,A,3328.7566,N,11205.2708,W,0.20,232.77,110317,,,D*7A
$GPVTG,232.77,T,,M,0.20,N,0.37,K,D*3D
$GPGGA,000006.000,3328.7570,N,11205.2708,W,2,05,1.42,222.3,M,-26.6,M,0000,0000*52
$GPGSA,A,3,17,28,13,30,08,,,,,,,,1.68,1.42,0.89*0E
$GPRMC,000006.000,A,3328.7570,N,11205.2708,W,0.17,247.93,110317,,,D*72
$GPVTG,247.93,T,,M,0.17,N,0.32,K,D*34
$GPGGA,000007.000,3328.7573,N,11205.2709,W,2,05,1.42,222.8,M,-26.6,M,0000,0000*5A
$GPGSA,A,3,17,28,13,30,08,,,,,,,,1.68,1.42,0.89*0E
$GPGSV,3,1,09,30,74,028,36,28,63,321,42,48,45,214,40,17,40,200,37*7E
$GPGSV,3,2,09,13,31,310,40,01,22,102,18,08,18,041,21,07,,,32*4D
$GPGSV,3,3,09,11,,,28*7A
$GPRMC,000007.000,A,3328.7573,N,11205.2709,W,0.27,233.05,110317,,,D*7E
$GPVTG,233.05,T,,M,0.27,N,0.50,K,D*3F
$GPGGA,000008.000,3328.7577,N,11205.2708,W,2,05,1.42,223.4,M,-26.6,M,0000,0000*5D
$GPGSA,A,3,17,28,13,30,08,,,,,,,,1.68,1.42,0.89*0E
$GPRMC,000008.000,A,3328.7577,N,11205.2708,W,0.22,203.21,110317,,,D*74
$GPVTG,203.21,T,,M,0.22,N,0.42,K,D*3C
$GPGGA,000009.000,3328.7581,N,11205.2706,W,2,05,1.42,223.8,M,-26.6,M,0000,0000*57
$GPGSA,A,3,17,28,13,30,08,,,,,,,,1.68,1.42,0.89*0E
$GPRMC,000009.000,A,3328.7581,N,11205.2706,W,0.07,231.42,110317,,,D*71
$GPVTG,231.42,T,,M,0.07,N,0.13,K,D*3B
$GPGGA,000010.000,3328.7584,N,11205.2706,W,2,05,1.42,224.3,M,-26.6,M,0000,0000*56
$GPGSA,A,3,17,28,13,30,08,,,,,,,,1.68,1.42,0.89*0E
$GPRMC,000010.000,A,3328.7584,N,11205.2706,W,0.11,243.00,110317,,,D*78
$GPVTG,243.00,T,,M,0.11,N,0.21,K,D*3E
$GPGGA,000011.000,3328.7588,N,11205.2705,W,2,05,1.42,224.7,M,-26.6,M,0000,0000*5C
$GPGSA,A,3,17,28,13,30,08,,,,,,,,1.68,1.42,0.89*0E
$GPRMC,000011.000,A,3328.7588,N,11205.2705,W,0.18,199.83,110317,,,D*70
$GPVTG,199.83,T,,M,0.18,N,0.34,K,D*3C
$GPGGA,000012.000,3328.7593,N,11205.2705,W,2,05,1.42,225.2,M,-26.6,M,0000,0000*51
$GPGSA,A,3,17,28,13,30,08,,,,,,,,1.68,1.42,0.89*0E
$GPGSV,3,1,09,30,74,028,35,28,63,321,40,48,45,214,36,17,40,200,35*7C
$GPGSV,3,2,09,13,31,310,42,01,22,102,18,08,18,041,22,07,,,19*45
$GPGSV,3,3,09,11,,,23*71
$GPRMC,000012.000,A,3328.7593,N,11205.2705,W,0.13,283.91,110317,,,D*79
$GPVTG,283.91,T,,M,0.13,N,0.24,K,D*3D
$GPGGA,000013.000,3328.7596,N,11205.2703,W,2,05,1.42,225.6,M,-26.6,M,0000,0000*57
$GPGSA,A,3,17,28,13,30,08,,,,,,,,1.68,1.42,0.89*0E
$GPRMC,000013.000,A,3328.7596,N,11205.2703,W,0.09,172.76,110317,,,D*74
$GPVTG,172.76,T,,M,0.09,N,0.16,K,D*33
$GPGGA,000014.000,3328.7600,N,11205.2703,W,2,05,1.42,226.1,M,-26.6,M,0000,0000*58
$GPGSA,A,3,17,28,13,30,08,,,,,,,,1.68,1.42,0.89*0E
$GPRMC,000014.000,A,3328.7600,N,11205.2703,W,0.13,249.29,110317,,,D*75
$GPVTG,249.29,T,,M,0.13,N,0.23,K,D*3F
$GPGGA,000015.000,3328.7603,N,11205.2703,W,2,05,1.42,226.6,M,-26.6,M,0000,0000*5D
$GPGSA,A,3,17,28,13,30,08,,,,,,,,1.68,1.42,0.89*0E
$GPRMC,000015.000,A,3328.7603,N,11205.2703,W,0.22,219.19,110317,,,D*73
$GPVTG,219.19,T,,M,0.22,N,0.41,K,D*3F
$GPGGA,000016.000,3328.7608,N,11205.2702,W,2,05,1.42,227.1,M,-26.6,M,0000,0000*52
$GPGSA,A,3,17,28,13,30,08,,,,,,,,1.68,1.42,0.89*0E
$GPRMC,000016.000,A,3328.7608,N,11205.2702,W,0.28,317.58,110317,,,D*7A
$GPVTG,317.58,T,,M,0.28,N,0.52,K,D*3D
$GPGGA,000017.000,3328.7612,N,11205.2702,W,2,05,1.42,227.7,M,-26.6,M,0000,0000*5E
$GPGSA,A,3,17,28,13,30,08,,,,,,,,1.68,1.42,0.89*0E
$GPGSV,3,1,09,30,74,028,35,28,63,321,41,48,45,214,32,17,40,200,36*7A
$GPGSV,3,2,09,13,31,310,44,01,22,102,18,08,18,041,27,07,,,35*48
$GPGSV,3,3,09,11,,,23*71
$GPRMC,000017.000,A,3328.7612,N,11205.2702,W,0.20,251.93,110317,,,D*7C
$GPVTG,251.93,T,,M,0.20,N,0.38,K,D*3D
$GPGGA,000018.000,3328.7615,N,11205.2700,W,2,05,1.42,228.1,M,-26.6,M,0000,0000*5D
$GPGSA,A,3,17,28,13,30,08,,,,,,,,1.68,1.42,0.89*0E
$GPRMC,000018.000,A,3328.7615,N,11205.2700,W,0.20,176.00,110317,,,D*7A
$GPVTG,176.00,T,,M,0.20,N,0.37,K,D*3E
$GPGGA,000019.000,3328.7620,N,11205.2700,W,2,05,1.42,228.7,M,-26.6,M,0000,0000*5C
$GPGSA,A,3,17,28,13,30,08,,,,,,,,1.68,1.42,0.89*0E
$GPRMC,000019.000,A,3328.7620,N,11205.2700,W,0.13,262.79,110317,,,D*75
$GPVTG,262.79,T,,M,0.13,N,0.25,K,D*35
$GPGGA,000020.000,3328.7624,N,11205.2699,W,2,05,1.42,229.2,M,-26.6,M,0000,0000*57
$GPGSA,A,3,17,28,13,30,08,,,,,,,,1.68,1.42,0.89*0E
$GPRMC,000020.000,A,3328.7624,N,11205.2699,W,0.15,306.05,110317,,,D*74
$GPVTG,306.05,T,,M,0.15,N,0.27,K,D*39
$GPGGA,000021.000,3328.7628,N,11205.2698,W,2,05,1.42,229.8,M,-26.6,M,0000,0000*51
$GPGSA,A,3,17,28,13,30,08,,,,,,,,1.68,1.42,0.89*0E
$GPRMC,000021.000,A,3328.7628,N,11205.2698,W,0.09,276.25,110317,,,D*71
$GPVTG,276.25,T,,M,0.09,N,0.16,K,D*32
$GPGGA,000022.000,3328.7632,N,11205.2699,W,2,05,1.42,230.3,M,-26.6,M,0000,0000*5B
$GPGSA,A,3,17,28,13,30,08,,,,,,,,1.68,1.42,0.89*0E
$GPGSV,3,1,09,30,74,028,33,28,63,321,41,48,45,214,36,17,40,200,35*7B
$GPGSV,3,2,09,13,31,310,37,01,22,102,17,08,18,041,27,07,,,24*43
$GPGSV,3,3,09,11,,,23*71
$GPRMC,000022.000,A,3328.7632,N,11205.2699,W,0.18,276.07,110317,,,D*78
$GPVTG,276.07,T,,M,0.18,N,0.33,K,D*35
$GPGGA,000023.000,3328.7636,N,11205.2699,W,2,05,1.42,230.7,M,-26.6,M,0000,0000*5A
$GPGSA,A,3,17,28,13,30,08,,,,,,,,1.68,1.42,0.89*0E
$GPRMC,000023.000,A,3328.7636,N,11205.2699,W,0.13,289.36,110317,,,D*74
$GPVTG,289.36,T,,M,0.13,N,0.25,K,D*3B
$GPGGA,000024.000,3328.7640,N,11205.2701,W,2,05,1.42,231.3,M,-26.6,M,0000,0000*59
$GPGSA,A,3,17,28,13,30,08,,,,,,,,1.68,1.42,0.89*0E
$GPRMC,000024.000,A,3328.7640,N,11205.2701,W,0.20,259.61,110317,,,D*7D
$GPVTG,259.61,T,,M,0.20,N,0.37,K,D*37
$GPGGA,000025.000,3328.7644,N,11205.2701,W,2,05,1.42,231.9,M,-26.6,M,0000,0000*56
$GPGSA,A,3,17,28,13,30,08,,,,,,,,1.68,1.42,0.89*0E
$GPRMC,000025.000,A,3328.7644,N,11205.2701,W,0.14,226.15,110317,,,D*74
$GPVTG,226.15,T,,M,0.14,N,0.26,K,D*3B
$GPGGA,000026.000,3328.7648,N,11205.2700,W,2,05,1.42,232.5,M,-26.6,M,0000,0000*57
$GPGSA,A,3,17,28,13,30,08,,,,,,,,1.68,1.42,0.89*0E
$GPRMC,000026.000,A,3328.7648,N,11205.2700,W,0.04,215.71,110317,,,D*79
$GPVTG,215.71,T,,M,0.04,N,0.08,K,D*34
$GPGGA,000027.000,3328.7652,N,11205.2698,W,2,05,1.42,233.0,M,-26.6,M,0000,0000*59
$GPGSA,A,3,17,28,13,30,08,,,,,,,,1.68,1.42,0.89*0E
$GPGSV,3,1,09,30,74,028,36,28,63,321,41,48,45,214,34,17,40,200,35*7C
$GPGSV,3,2,09,13,31,310,47,01,22,102,18,08,18,041,27,07,,,24*4B
$GPGSV,3,3,09,11,,,22*70
$GPRMC,000027.000,A,3328.7652,N,11205.2698,W,0.14,189.55,110317,,,D*72
$GPVTG,189.55,T,,M,0.14,N,0.26,K,D*39
$GPGGA,000028.000,3328.7658,N,11205.2696,W,2,05,1.42,233.5,M,-26.6,M,0000,0000*57
$GPGSA,A,3,17,28,13,30,08,,,,,,,,1.68,1.42,0.89*0E
$GPRMC,000028.000,A,3328.7658,N,11205.2696,W,0.10,144.54,110317,,,D*7D
$GPVTG,144.54,T,,M,0.10,N,0.18,K,D*30
$GPGGA,000029.000,3328.7664,N,11205.2692,W,2,05,1.42,234.0,M,-26.6,M,0000,0000*5F
$GPGSA,A,3,17,28,13,30,08,,,,,,,,1.68,1.42,0.89*0E
$GPRMC,000029.000,A,3328.7664,N,11205.2692,W,0.21,139.66,110317,,,D*7E
$GPVTG,139.66,T,,M,0.21,N,0.39,K,D*3A
$GPGGA,000030.000,3328.7670,N,11205.2690,W,2,05,1.42,234.6,M,-26.6,M,0000,0000*56
$GPGSA,A,3,17,28,13,30,08,,,,,,,,1.68,1.42,0.89*0E
$GPRMC,000030.000,A,3328.7670,N,11205.2690,W,0.16,92.73,110317,,,D*41
$GPVTG,92.73,T,,M,0.16,N,0.29,K,D*0B
$GPGGA,000031.000,3328.7675,N,11205.2689,W,2,05,1.42,235.1,M,-26.6,M,0000,0000*5C
$GPGSA,A,3,17,28,13,30,08,,,,,,,,1.68,1.42,0.89*0E
$GPRMC,000031.000,A,3328.7675,N,11205.2689,W,0.04,192.83,110317,,,D*70
$GPVTG,192.83,T,,M,0.04,N,0.07,K,D*3A
$GPGGA,000032.000,3328.7678,N,11205.2690,W,2,05,1.42,235.7,M,-26.6,M,0000,0000*5C
$GPGSA,A,3,17,28,13,30,08,,,,,,,,1.68,1.42,0.89*0E
$GPGSV,3,1,09,30,74,028,35,28,63,322,40,48,45,214,33,17,40,200,36*79
$GPGSV,3,2,09,13,31,310,44,01,22,102,17,08,18,041,30,07,,,18*4E
$GPGSV,3,3,09,11,,,18*79
$GPRMC,000032.000,A,3328.7678,N,11205.2690,W,0.30,244.68,110317,,,D*7C
$GPVTG,244.68,T,,M,0.30,N,0.56,K,D*34
$GPGGA,000033.000,3328.7681,N,11205.2692,W,2,05,1.42,236.2,M,-26.6,M,0000,0000*5F
$GPGSA,A,3,17,28,13,30,08,,,,,,,,1.68,1.42,0.89*0E
$GPRMC,000033.000,A,3328.7681,N,11205.2692,W,0.26,238.23,110317,,,D*7A
$GPVTG,238.23,T,,M,0.26,N,0.48,K,D*38
$GPGGA,000034.000,3328.7686,N,11205.2691,W,2,05,1.42,236.9,M,-26.6,M,0000,0000*57
$GPGSA,A,3,17,28,13,30,08,,,,,,,,1.68,1.42,0.89*0E
$GPRMC,000034.000,A,3328.7686,N,11205.2691,W,0.12,279.86,110317,,,D*74
$GPVTG,279.86,T,,M,0.12,N,0.22,K,D*39
$GPGGA,000035.000,3328.7690,N,11205.2691,W,2,05,1.42,237.4,M,-26.6,M,0000,0000*5D
$GPGSA,A,3,17,28,13,30,08,,,,,,,,1.68,1.42,0.89*0E
$GPRMC,000035.000,A,3328.7690,N,11205.2691,W,0.08,20.42,110317,,,D*4F
$GPVTG,20.42,T,,M,0.08,N,0.15,K,D*00
$GPGGA,000036.000,3328.7692,N,11205.2693,W,2,05,1.42,237.9,M,-26.6,M,0000,0000*53
$GPGSA,A,3,17,28,13,30,08,,,,,,,,1.68,1.42,0.89*0E
$GPRMC,000036.000,A,3328.7692,N,11205.2693,W,0.07,241.72,110317,,,D*75
$GPVTG,241.72,T,,M,0.07,N,0.14,K,D*38
$GPGGA,000037.000,3328.7695,N,11205.2693,W,2,05,1.42,238.4,M,-26.6,M,0000,0000*57
$GPGSA,A,3,17,28,13,30,08,,,,,,,,1.68,1.42,0.89*0E
$GPGSV,3,1,09,30,74,029,33,28,63,322,39,48,45,214,36,17,40,200,28*7A
$GPGSV,3,2,09,13,31,310,41,01,22,102,18,08,18,041,31,07,,,27*49
$GPGSV,3,3,09,11,,,27*75
$GPRMC,000037.000,A,3328.7695,N,11205.2693,W,0.10,140.20,110317,,,D*70
$GPVTG,140.20,T,,M,0.10,N,0.19,K,D*36
$GPGGA,000038.000,3328.7700,N,11205.2693,W,2,05,1.42,239.0,M,-26.6,M,0000,0000*50
$GPGSA,A,3,17,28,13,30,08,,,,,,,,1.68,1.42,0.89*0E
$GPRMC,000038.000,A,3328.7700,N,11205.2693,W,0.06,4.81,110317,,,D*7F
$GPVTG,4.81,T,,M,0.06,N,0.11,K,D*33
$GPGGA,000039.000,3328.7703,N,11205.2692,W,2,05,1.45,239.5,M,-26.6,M,0000,0000*51
$GPGSA,A,3,17,28,13,30,08,,,,,,,,2.45,1.45,1.97*0B
$GPRMC,000039.000,A,3328.7703,N,11205.2692,W,0.22,159.39,110317,,,D*70
$GPVTG,159.39,T,,M,0.22,N,0.40,K,D*3B
$GPGGA,000040.000,3328.7708,N,11205.2693,W,2,05,1.42,240.0,M,-26.6,M,0000,0000*59
$GPGSA,A,3,17,28,13,30,08,,,,,,,,1.68,1.42,0.89*0E
$GPRMC,000040.000,A,3328.7708,N,11205.2693,W,0.25,310.24,110317,,,D*70
$GPVTG,310.24,T,,M,0.25,N,0.47,K,D*38
$GPGGA,000041.000,3328.7712,N,11205.2692,W,2,05,1.42,240.6,M,-26.6,M,0000,0000*54
$GPGSA,A,3,17,28,13,30,08,,,,,,,,1.68,1.42,0.89*0E
$GPRMC,000041.000,A,3328.7712,N,11205.2692,W,0.09,325.02,110317,,,D*77
$GPVTG,325.02,T,,M,0.09,N,0.16,K,D*30
$GPGGA,000042.000,3328.7716,N,11205.2691,W,2,05,1.42,241.1,M,-26.6,M,0000,0000*56
$GPGSA,A,3,17,28,13,30,08,,,,,,,,1.68,1.42,0.89*0E
$GPGSV,3,1,09,30,74,029,33,28,63,322,39,48,45,214,36,17,40,200,39*7A
$GPGSV,3,2,09,13,31,310,45,01,22,102,16,08,18,041,29,07,,,19*47
$GPGSV,3,3,09,11,,,26*74
$GPRMC,000042.000,A,3328.7716,N,11205.2691,W,0.03,274.66,110317,,,D*7E
$GPVTG,274.66,T,,M,0.03,N,0.06,K,D*3C
$GPGGA,000043.000,3328.7720,N,11205.2691,W,2,05,1.42,241.6,M,-26.6,M,0000,0000*55
$GPGSA,A,3,17,28,13,30,08,,,,,,,,1.68,1.42,0.89*0E
$GPRMC,000043.000,A,3328.7720,N,11205.2691,W,0.17,294.58,110317,,,D*7C
$GPVTG,294.58,T,,M,0.17,N,0.31,K,D*3E
$GPGGA,000044.000,3328.7724,N,11205.2689,W,2,05,1.42,242.1,M,-26.6,M,0000,0000*5B
$GPGSA,A,3,17,28,13,30,08,,,,,,,,1.68,1.42,0.89*0E
$GPRMC,000044.000,A,3328.7724,N,11205.2689,W,0.09,358.66,110317,,,D*75
$GPVTG,358.66,T,,M,0.09,N,0.17,K,D*39
$GPGGA,000045.000,3328.7728,N,11205.2688,W,2,05,1.45,242.5,M,-26.6,M,0000,0000*54
$GPGSA,A,3,17,28,13,30,08,,,,,,,,2.45,1.45,1.97*0B
$GPRMC,000045.000,A,3328.7728,N,11205.2688,W,0.03,217.18,110317,,,D*70
$GPVTG,217.18,T,,M,0.03,N,0.05,K,D*33
$GPGGA,000046.000,3328.7731,N,11205.2686,W,2,05,1.42,243.0,M,-26.6,M,0000,0000*52
$GPGSA,A,3,17,28,13,30,08,,,,,,,,1.68,1.42,0.89*0E
$GPRMC,000046.000,A,3328.7731,N,11205.2686,W,0.23,152.73,110317,,,D*78
$GPVTG,152.73,T,,M,0.23,N,0.42,K,D*3D
$GPGGA,000047.000,3328.7733,N,11205.2684,W,2,05,1.42,243.5,M,-26.6,M,0000,0000*56
$GPGSA,A,3,17,28,13,30,08,,,,,,,,1.68,1.42,0.89*0E
$GPGSV,3,1,09,30,74,029,34,28,63,322,39,07,47,106,23,48,45,214,41*75
$GPGSV,3,2,09,17,40,200,39,13,31,310,44,01,22,102,16,08,18,041,29*73
$GPGSV,3,3,09,11,,,29*7B
$GPRMC,000047.000,A,3328.7733,N,11205.2684,W,0.35,158.32,110317,,,D*71
$GPVTG,158.32,T,,M,0.35,N,0.66,K,D*33
$GPGGA,000048.000,3328.7737,N,11205.2683,W,2,05,1.42,244.0,M,-26.6,M,0000,0000*58
$GPGSA,A,3,17,28,13,30,08,,,,,,,,1.68,1.42,0.89*0E
$GPRMC,000048.000,A,3328.7737,N,11205.2683,W,0.11,135.03,110317,,,D*72
$GPVTG,135.03,T,,M,0.11,N,0.20,K,D*3E
$GPGGA,000049.000,3328.7740,N,11205.2683,W,2,05,1.42,244.5,M,-26.6,M,0000,0000*5C
$GPGSA,A,3,17,28,13,30,08,,,,,,,,1.68,1.42,0.89*0E
$GPRMC,000049.000,A,3328.7740,N,11205.2683,W,0.20,178.94,110317,,,D*76
$GPVTG,178.94,T,,M,0.20,N,0.38,K,D*32
$GPGGA,000050.000,3328.7744,N,11205.2681,W,2,05,1.42,245.0,M,-26.6,M,0000,0000*56
$GPGSA,A,3,17,28,13,30,08,,,,,,,,1.68,1.42,0.89*0E
$GPRMC,000050.000,A,3328.7744,N,11205.2681,W,0.39,123.07,110317,,,D*74
$GPVTG,123.07,T,,M,0.39,N,0.72,K,D*30
$GPGGA,000051.000,3328.7748,N,11205.2679,W,2,05,1.42,245.4,M,-26.6,M,0000,0000*58
$GPGSA,A,3,17,28,13,30,08,,,,,,,,1.68,1.42,0.89*0E
$GPRMC,000051.000,A,3328.7748,N,11205.2679,W,0.24,79.99,110317,,,D*4B
$GPVTG,79.99,T,,M,0.24,N,0.44,K,D*00
$GPGGA,000052.000,3328.7754,N,11205.2678,W,2,05,1.43,245.8,M,-26.6,M,0000,0000*5A
$GPGSA,A,3,17,28,13,30,08,,,,,,,,1.68,1.43,0.89*0F
$GPGSV,3,1,09,30,74,029,34,28,63,322,40,07,47,106,24,48,45,214,30*7A
$GPGSV,3,2,09,17,40,200,34,13,31,310,34,01,22,102,16,08,17,041,26*79
$GPGSV,3,3,09,11,,,20*72
$GPRMC,000052.000,A,3328.7754,N,11205.2678,W,0.38,44.60,110317,,,D*41
$GPVTG,44.60,T,,M,0.38,N,0.71,K,D*03
$GPGGA,000053.000,3328.7760,N,11205.2679,W,2,05,1.42,246.2,M,-26.6,M,0000,0000*55
$GPGSA,A,3,17,28,13,30,08,,,,,,,,1.68,1.42,0.89*0E
$GPRMC,000053.000,A,3328.7760,N,11205.2679,W,0.43,5.28,110317,,,D*73
$GPVTG,5.28,T,,M,0.43,N,0.80,K,D*38
$GPGGA,000054.000,3328.7763,N,11205.2676,W,2,05,1.45,246.7,M,-26.6,M,0000,0000*5C
$GPGSA,A,3,17,28,13,30,08,,,,,,,,2.45,1.45,1.97*0B
$GPRMC,000054.000,A,3328.7763,N,11205.2676,W,0.31,67.45,110317,,,D*42
$GPVTG,67.45,T,,M,0.31,N,0.58,K,D*07
$GPGGA,000055.000,3328.7766,N,11205.2676,W,2,05,1.42,247.2,M,-26.6,M,0000,0000*5B
$GPGSA,A,3,17,28,13,30,08,,,,,,,,1.68,1.42,0.89*0E
$GPRMC,000055.000,A,3328.7766,N,11205.2676,W,0.21,126.35,110317,,,D*74
$GPVTG,126.35,T,,M,0.21,N,0.40,K,D*3C
$GPGGA,000056.000,3328.7770,N,11205.2674,W,2,05,1.42,247.6,M,-26.6,M,0000,0000*59
$GPGSA,A,3,17,28,13,30,08,,,,,,,,1.68,1.42,0.89*0E
$GPRMC,000056.000,A,3328.7770,N,11205.2674,W,0.24,100.46,110317,,,D*77
$GPVTG,100.46,T,,M,0.24,N,0.44,K,D*3D
$GPGGA,000057.000,3328.7771,N,11205.2674,W,2,05,1.42,247.8,M,-26.6,M,0000,0000*57
$GPGSA,A,3,17,28,13,30,08,,,,,,,,1.68,1.42,0.89*0E
$GPGSV,3,1,09,30,74,029,35,28,63,322,39,07,47,106,30,48,45,214,34*74
$GPGSV,3,2,09,17,40,200,27,13,31,310,44,01,22,102,18,08,17,041,22*76
$GPGSV,3,3,09,11,,,21*73
$GPRMC,000057.000,A,3328.7771,N,11205.2674,W,0.23,99.53,110317,,,D*45
$GPVTG,99.53,T,,M,0.23,N,0.43,K,D*08
$GPGGA,000058.000,3328.7772,N,11205.2674,W,2,05,1.42,248.0,M,-26.6,M,0000,0000*5C
$GPGSA,A,3,17,28,13,30,08,,,,,,,,1.68,1.42,0.89*0E
$GPRMC,000058.000,A,3328.7772,N,11205.2674,W,0.09,34.90,110317,,,D*49
$GPVTG,34.90,T,,M,0.09,N,0.17,K,D*09
$GPGGA,000059.000,3328.7775,N,11205.2673,W,2,05,1.42,248.1,M,-26.6,M,0000,0000*5C
$GPGSA,A,3,17,28,13,30,08,,,,,,,,1.68,1.42,0.89*0E
$GPRMC,000059.000,A,3328.7775,N,11205.2673,W,0.15,56.70,110317,,,D*4F
$GPVTG,56.70,T,,M,0.15,N,0.29,K,D*03
$GPGGA,000100.000,3328.7776,N,11205.2673,W,2,05,1.42,248.3,M,-26.6,M,0000,0000*50
$GPGSA,A,3,17,28,13,30,08,,,,,,,,1.68,1.42,0.89*0E
$GPRMC,000100.000,A,3328.7776,N,11205.2673,W,0.14,10.24,110317,,,D*43
$GPVTG,10.24,T,,M,0.14,N,0.27,K,D*0F
$GPGGA,000101.000,3328.7780,N,11205.2675,W,2,05,1.46,248.9,M,-26.6,M,0000,0000*50
$GPGSA,A,3,17,28,13,30,08,,,,,,,,2.45,1.46,1.97*08
$GPRMC,000101.000,A,3328.7780,N,11205.2675,W,0.23,208.36,110317,,,D*71
$GPVTG,208.36,T,,M,0.23,N,0.43,K,D*31
$GPGGA,000102.000,3328.7785,N,11205.2676,W,2,05,1.42,249.3,M,-26.6,M,0000,0000*5A
$GPGSA,A,3,17,28,13,30,08,,,,,,,,1.68,1.42,0.89*0E
$GPGSV,3,1,09,30,74,029,38,28,63,322,39,07,47,106,29,48,45,214,31*74
$GPGSV,3,2,09,17,41,200,26,13,31,310,45,01,22,102,17,08,17,041,24*7E
$GPGSV,3,3,09,11,,,16*77
$GPRMC,000102.000,A,3328.7785,N,11205.2676,W,0.27,230.91,110317,,,D*76
$GPVTG,230.91,T,,M,0.27,N,0.50,K,D*31
$GPGGA,000103.000,3328.7793,N,11205.2673,W,2,05,1.42,249.8,M,-26.6,M,0000,0000*52
$GPGSA,A,3,17,28,13,30,08,,,,,,,,1.68,1.42,0.89*0E
$GPRMC,000103.000,A,3328.7793,N,11205.2673,W,0.11,189.13,110317,,,D*7B
$GPVTG,189.13,T,,M,0.11,N,0.21,K,D*39
$GPGGA,000104.000,3328.7799,N,11205.2673,W,2,05,1.43,250.3,M,-26.6,M,0000,0000*5D
$GPGSA,A,3,17,28,13,30,08,,,,,,,,1.68,1.43,0.89*0F
$GPRMC,000104.000,A,3328.7799,N,11205.2673,W,0.18,331.11,110317,,,D*7C
$GPVTG,331.11,T,,M,0.18,N,0.33,K,D*30
$GPGGA,000105.000,3328.7804,N,11205.2673,W,2,05,1.43,250.8,M,-26.6,M,0000,0000*5C
$GPGSA,A,3,17,28,13,30,08,,,,,,,,1.68,1.43,0.89*0F
$GPRMC,000105.000,A,3328.7804,N,11205.2673,W,0.32,318.90,110317,,,D*7C
$GPVTG,318.90,T,,M,0.32,N,0.60,K,D*3C
$GPGGA,000106.000,3328.7809,N,11205.2672,W,2,05,1.42,251.3,M,-26.6,M,0000,0000*58
$GPGSA,A,3,17,28,13,30,08,,,,,,,,1.68,1.42,0.89*0E
$GPRMC,000106.000,A,3328.7809,N,11205.2672,W,0.14,333.60,110317,,,D*71
$GPVTG,333.60,T,,M,0.14,N,0.26,K,D*3C
$GPGGA,000107.000,3328.7814,N,11205.2673,W,2,05,1.43,251.8,M,-26.6,M,0000,0000*5E
$GPGSA,A,3,17,28,13,30,08,,,,,,,,1.68,1.43,0.89*0F
$GPGSV,3,1,09,30,74,029,30,28,63,322,40,07,47,106,23,48,45,214,29*71
$GPGSV,3,2,09,17,41,200,35,13,31,310,44,01,22,102,19,08,17,041,21*76
$GPGSV,3,3,09,11,,,17*76
$GPRMC,000107.000,A,3328.7814,N,11205.2673,W,0.15,282.27,110317,,,D*74
$GPVTG,282.27,T,,M,0.15,N,0.27,K,D*34
$GPGGA,000108.000,3328.7818,N,11205.2671,W,2,05,1.42,252.3,M,-26.6,M,0000,0000*56
$GPGSA,A,3,17,28,13,30,08,,,,,,,,1.68,1.42,0.89*0E
$GPRMC,000108.000,A,3328.7818,N,11205.2671,W,0.03,254.96,110317,,,D*73
$GPVTG,254.96,T,,M,0.03,N,0.05,K,D*32
$GPGGA,000109.000,3328.7823,N,11205.2669,W,2,05,1.43,252.8,M,-26.6,M,0000,0000*5C
$GPGSA,A,3,17,28,13,30,08,,,,,,,,1.68,1.43,0.89*0F
$GPRMC,000109.000,A,3328.7823,N,11205.2669,W,0.12,10.37,110317,,,D*4A
$GPVTG,10.37,T,,M,0.12,N,0.23,K,D*0F
$GPGGA,000110.000,3328.7827,N,11205.2669,W,2,05,1.46,253.4,M,-26.6,M,0000,0000*58
$GPGSA,A,3,17,28,13,30,08,,,,,,,,2.45,1.46,1.97*08
$GPRMC,000110.000,A,3328.7827,N,11205.2669,W,0.23,323.00,110317,,,D*73
$GPVTG,323.00,T,,M,0.23,N,0.42,K,D*3D
$GPGGA,000111.000,3328.7832,N,11205.2668,W,2,05,1.43,254.0,M,-26.6,M,0000,0000*5A
$GPGSA,A,3,17,28,13,30,08,,,,,,,,1.68,1.43,0.89*0F
$GPRMC,000111.000,A,3328.7832,N,11205.2668,W,0.19,313.29,110317,,,D*76
$GPVTG,313.29,T,,M,0.19,N,0.36,K,D*3F
$GPGGA,000112.000,3328.7836,N,11205.2667,W,2,05,1.43,254.6,M,-26.6,M,0000,0000*54
$GPGSA,A,3,17,28,13,30,08,,,,,,,,1.68,1.43,0.89*0F
$GPGSV,3,1,09,30,74,030,25,28,63,322,41,07,47,106,17,48,45,214,31*72
$GPGSV,3,2,09,17,41,200,39,13,31,310,44,01,22,102,20,08,17,041,19*7B
$GPGSV,3,3,09,11,,,19*78
$GPRMC,000112.000,A,3328.7836,N,11205.2667,W,0.06,221.55,110317,,,D*7B
$GPVTG,221.55,T,,M,0.06,N,0.11,K,D*3F
$GPGGA,000113.000,3328.7840,N,11205.2667,W,2,05,1.43,255.1,M,-26.6,M,0000,0000*52
$GPGSA,A,3,17,28,13,30,08,,,,,,,,1.68,1.43,0.89*0F
$GPRMC,000113.000,A,3328.7840,N,11205.2667,W,0.11,309.06,110317,,,D*70
$GPVTG,309.06,T,,M,0.11,N,0.20,K,D*36
$GPGGA,000114.000,3328.7844,N,11205.2664,W,2,05,1.43,255.6,M,-26.6,M,0000,0000*55
$GPGSA,A,3,17,28,13,30,08,,,,,,,,1.68,1.43,0.89*0F
$GPRMC,000114.000,A,3328.7844,N,11205.2664,W,0.15,124.02,110317,,,D*7D
$GPVTG,124.02,T,,M,0.15,N,0.27,K,D*3C
$GPGGA,000115.000,3328.7848,N,11205.2666,W,2,05,1.43,256.1,M,-26.6,M,0000,0000*5E
$GPGSA,A,3,17,28,13,30,08,,,,,,,,1.68,1.43,0.89*0F
$GPRMC,000115.000,A,3328.7848,N,11205.2666,W,0.05,294.49,110317,,,D*74
$GPVTG,294.49,T,,M,0.05,N,0.09,K,D*36
$GPGGA,000116.000,3328.7851,N,11205.2666,W,2,05,1.43,256.6,M,-26.6,M,0000,0000*52
$GPGSA,A,3,17,28,13,30,08,,,,,,,,1.68,1.43,0.89*0F
$GPRMC,000116.000,A,3328.7851,N,11205.2666,W,0.08,310.17,110317,,,D*74
$GPVTG,310.17,T,,M,0.08,N,0.15,K,D*30
$GPGGA,000117.000,3328.7854,N,11205.2665,W,2,05,1.43,257.2,M,-26.6,M,0000,0000*50
$GPGSA,A,3,17,28,13,30,08,,,,,,,,1.68,1.43,0.89*0F
$GPGSV,3,1,09,30,74,030,21,28,63,322,41,07,47,106,19,48,45,214,31*78
$GPGSV,3,2,09,17,41,200,39,13,31,310,44,01,22,102,17,08,17,041,21*74
$GPGSV,3,3,09,11,,,18*79
$GPRMC,000117.000,A,3328.7854,N,11205.2665,W,0.15,163.22,110317,,,D*7F
$GPVTG,163.22,T,,M,0.15,N,0.27,K,D*3D
$GPGGA,000118.000,3328.7856,N,11205.2668,W,2,05,1.43,257.8,M,-26.6,M,0000,0000*5A
$GPGSA,A,3,17,28,13,30,08,,,,,,,,1.68,1.43,0.89*0F
$GPRMC,000118.000,A,3328.7856,N,11205.2668,W,0.21,223.11,110317,,,D*7F
$GPVTG,223.11,T,,M,0.21,N,0.39,K,D*32
$GPGGA,000119.000,3328.7858,N,11205.2670,W,2,05,1.43,258.4,M,-26.6,M,0000,0000*5F
$GPGSA,A,3,17,28,13,30,08,,,,,,,,1.68,1.43,0.89*0F
$GPRMC,000119.000,A,3328.7858,N,11205.2670,W,0.27,248.68,110317,,,D*7C
$GPVTG,248.68,T,,M,0.27,N,0.49,K,D*30
$GPGGA,000120.000,3328.7862,N,11205.2670,W,2,05,1.43,258.9,M,-26.6,M,0000,0000*51
$GPGSA,A,3,17,28,13,30,08,,,,,,,,1.68,1.43,0.89*0F
$GPRMC,000120.000,A,3328.7862,N,11205.2670,W,0.17,253.72,110317,,,D*7D
$GPVTG,253.72,T,,M,0.17,N,0.32,K,D*3E
$GPGGA,000121.000,3328.7864,N,11205.2670,W,2,05,1.43,259.4,M,-26.6,M,0000,0000*5A
$GPGSA,A,3,17,28,13,30,08,,,,,,,,1.68,1.43,0.89*0F
$GPRMC,000121.000,A,3328.7864,N,11205.2670,W,0.23,209.34,110317,,,D*70
$GPVTG,209.34,T,,M,0.23,N,0.42,K,D*33
$GPGGA,000122.000,3328.7868,N,11205.2670,W,2,05,1.43,259.8,M,-26.6,M,0000,0000*59
$GPGSA,A,3,17,28,13,30,08,,,,,,,,1.68,1.43,0.89*0F
$GPGSV,3,1,09,30,74,030,21,28,63,322,41,07,47,106,18,48,45,214,31*79
$GPGSV,3,2,09,17,41,200,34,13,31,310,43,01,22,102,17,08,17,041,23*7C
$GPGSV,3,3,09,11,,,17*76
$GPRMC,000122.000,A,3328.7868,N,11205.2670,W,0.09,200.72,110317,,,D*7C
$GPVTG,200.72,T,,M,0.09,N,0.16,K,D*31
$GPGGA,000123.000,3328.7871,N,11205.2670,W,2,05,1.43,260.3,M,-26.6,M,0000,0000*51
$GPGSA,A,3,17,28,13,30,08,,,,,,,,1.68,1.43,0.89*0F
$GPRMC,000123.000,A,3328.7871,N,11205.2670,W,0.06,215.70,110317,,,D*7C
$GPVTG,215.70,T,,M,0.06,N,0.11,K,D*3F
$GPGGA,000124.000,3328.7876,N,11205.2668,W,2,05,1.43,260.8,M,-26.6,M,0000,0000*53
$GPGSA,A,3,17,28,13,30,08,,,,,,,,1.68,1.43,0.89*0F
$GPRMC,000124.000,A,3328.7876,N,11205.2668,W,0.16,111.17,110317,,,D*72
$GPVTG,111.17,T,,M,0.16,N,0.30,K,D*3B
$GPGGA,000125.000,3328.7879,N,11205.2671,W,2,05,1.43,261.3,M,-26.6,M,0000,0000*5F
$GPGSA,A,3,17,28,13,30,08,,,,,,,,1.68,1.43,0.89*0F
$GPRMC,000125.000,A,3328.7879,N,11205.2671,W,0.12,197.99,110317,,,D*78
$GPVTG,197.99,T,,M,0.12,N,0.23,K,D*35
$GPGGA,000126.000,3328.7882,N,11205.2670,W,2,05,1.43,261.7,M,-26.6,M,0000,0000*5D
$GPGSA,A,3,17,28,13,30,08,,,,,,,,1.68,1.43,0.89*0F
$GPRMC,000126.000,A,3328.7882,N,11205.2670,W,0.23,167.83,110317,,,D*78
$GPVTG,167.83,T,,M,0.23,N,0.43,K,D*35
$GPGGA,000127.000,3328.7887,N,11205.2669,W,2,05,1.43,262.1,M,-26.6,M,0000,0000*54
$GPGSA,A,3,17,28,13,30,08,,,,,,,,1.68,1.43,0.89*0F
$GPGSV,3,1,09,30,74,030,28,28,63,322,41,07,46,106,24,48,45,214,33*7C
$GPGSV,3,2,09,17,41,200,32,13,31,310,40,01,22,102,21,08,17,041,18*74
$GPGSV,3,3,09,11,,,16*77
$GPRMC,000127.000,A,3328.7887,N,11205.2669,W,0.15,155.03,110317,,,D*78
$GPVTG,155.03,T,,M,0.15,N,0.27,K,D*3B
$GPGGA,000128.000,3328.7892,N,11205.2669,W,2,05,1.43,262.5,M,-26.6,M,0000,0000*5B
$GPGSA,A,3,17,28,13,30,08,,,,,,,,1.68,1.43,0.89*0F
$GPRMC,000128.000,A,3328.7892,N,11205.2669,W,0.04,311.48,110317,,,D*7E
$GPVTG,311.48,T,,M,0.04,N,0.08,K,D*3B
$GPGGA,000129.000,3328.7896,N,11205.2670,W,2,05,1.43,262.9,M,-26.6,M,0000,0000*5A
$GPGSA,A,3,17,28,13,30,08,,,,,,,,1.68,1.43,0.89*0F
$GPRMC,000129.000,A,3328.7896,N,11205.2670,W,0.10,263.88,110317,,,D*7E
$GPVTG,263.88,T,,M,0.10,N,0.19,K,D*36
$GPGGA,000130.000,3328.7900,N,11205.2671,W,2,05,1.43,263.4,M,-26.6,M,0000,0000*51
$GPGSA,A,3,17,28,13,30,08,,,,,,,,1.68,1.43,0.89*0F
$GPRMC,000130.000,A,3328.7900,N,11205.2671,W,0.24,260.43,110317,,,D*7A
$GPVTG,260.43,T,,M,0.24,N,0.44,K,D*3D
$GPGGA,000131.000,3328.7905,N,11205.2671,W,2,05,1.43,263.8,M,-26.6,M,0000,0000*59
$GPGSA,A,3,17,28,13,30,08,,,,,,,,1.68,1.43,0.89*0F
$GPRMC,000131.000,A,3328.7905,N,11205.2671,W,0.23,274.26,110317,,,D*7F
$GPVTG,274.26,T,,M,0.23,N,0.42,K,D*3A
$GPGGA,000132.000,3328.7910,N,11205.2671,W,2,05,1.43,264.3,M,-26.6,M,0000,0000*52
$GPGSA,A,3,17,28,13,30,08,,,,,,,,1.68,1.43,0.89*0F
$GPGSV,3,1,09,30,74,030,26,28,63,322,41,07,46,106,18,48,45,214,32*7C
$GPGSV,3,2,09,17,41,200,24,13,31,310,40,01,22,102,23,08,17,041,22*78
$GPGSV,3,3,09,11,,,15*74
$GPRMC,000132.000,A,3328.7910,N,11205.2671,W,0.15,278.36,110317,,,D*70
$GPVTG,278.36,T,,M,0.15,N,0.28,K,D*3E
$GPGGA,000133.000,3328.7915,N,11205.2670,W,2,05,1.43,264.7,M,-26.6,M,0000,0000*53
$GPGSA,A,3,17,28,13,30,08,,,,,,,,1.68,1.43,0.89*0F
$GPRMC,000133.000,A,3328.7915,N,11205.2670,W,0.06,347.34,110317,,,D*78
$GPVTG,347.34,T,,M,0.06,N,0.12,K,D*3A
$GPGGA,000134.000,3328.7920,N,11205.2671,W,2,05,1.46,265.2,M,-26.6,M,0000,0000*52
$GPGSA,A,3,17,28,13,30,08,,,,,,,,2.45,1.46,1.97*08
$GPRMC,000134.000,A,3328.7920,N,11205.2671,W,0.09,322.44,110317,,,D*73
$GPVTG,322.44,T,,M,0.09,N,0.16,K,D*35
$GPGGA,000135.000,3328.7924,N,11205.2674,W,2,05,1.43,265.7,M,-26.6,M,0000,0000*52
$GPGSA,A,3,17,28,13,30,08,,,,,,,,1.68,1.43,0.89*0F
$GPRMC,000135.000,A,3328.7924,N,11205.2674,W,0.22,254.22,110317,,,D*7A
$GPVTG,254.22,T,,M,0.22,N,0.41,K,D*3E
$GPGGA,000136.000,3328.7928,N,11205.2675,W,2,05,1.43,266.1,M,-26.6,M,0000,0000*59
$GPGSA,A,3,17,28,13,30,08,,,,,,,,1.68,1.43,0.89*0F
$GPRMC,000136.000,A,3328.7928,N,11205.2675,W,0.28,223.50,110317,,,D*7B
$GPVTG,223.50,T,,M,0.28,N,0.51,K,D*30
$GPGGA,000137.000,3328.7933,N,11205.2677,W,2,05,1.43,266.6,M,-26.6,M,0000,0000*57
$GPGSA,A,3,17,28,13,30,08,,,,,,,,1.68,1.43,0.89*0F
$GPGSV,3,1,09,30,74,030,29,28,63,322,40,07,46,106,29,48,45,214,31*73
$GPGSV,3,2,09,17,41,200,34,13,31,310,37,01,22,102,20,08,17,041,23*7B
$GPGSV,3,3,09,11,,,17*76
$GPRMC,000137.000,A,3328.7933,N,11205.2677,W,0.18,220.99,110317,,,D*77
$GPVTG,220.99,T,,M,0.18,N,0.33,K,D*31
$GPGGA,000138.000,3328.7938,N,11205.2682,W,2,05,1.43,267.1,M,-26.6,M,0000,0000*5F
$GPGSA,A,3,17,28,13,30,08,,,,,,,,1.68,1.43,0.89*0F
$GPRMC,000138.000,A,3328.7938,N,11205.2682,W,0.16,205.15,110317,,,D*74
$GPVTG,205.15,T,,M,0.16,N,0.29,K,D*37
$GPGGA,000139.000,3328.7943,N,11205.2687,W,2,05,1.43,267.6,M,-26.6,M,0000,0000*50
$GPGSA,A,3,17,28,13,30,08,,,,,,,,1.68,1.43,0.89*0F
$GPRMC,000139.000,A,3328.7943,N,11205.2687,W,0.36,243.91,110317,,,D*70
$GPVTG,243.91,T,,M,0.36,N,0.67,K,D*31
$GPGGA,000140.000,3328.7948,N,11205.2689,W,2,05,1.43,268.0,M,-26.6,M,0000,0000*52
$GPGSA,A,3,17,28,13,30,08,,,,,,,,1.68,1.43,0.89*0F
$GPRMC,000140.000,A,3328.7948,N,11205.2689,W,0.43,270.13,110317,,,D*73
$GPVTG,270.13,T,,M,0.43,N,0.80,K,D*30
$GPGGA,000141.000,3328.7953,N,11205.2689,W,2,05,1.43,268.5,M,-26.6,M,0000,0000*5C
$GPGSA,A,3,17,28,13,30,08,,,,,,,,1.68,1.43,0.89*0F
$GPRMC,000141.000,A,3328.7953,N,11205.2689,W,0.40,253.22,110317,,,D*78
$GPVTG,253.22,T,,M,0.40,N,0.74,K,D*3B
$GPGGA,000142.000,3328.7958,N,11205.2689,W,2,05,1.43,269.0,M,-26.6,M,0000,0000*50
$GPGSA,A,3,17,28,13,30,08,,,,,,,,1.68,1.43,0.89*0F
$GPGSV,3,1,09,30,74,030,33,28,63,322,41,07,46,106,23,48,45,214,38*7A
$GPGSV,3,2,09,17,41,200,39,13,31,310,46,01,22,102,16,08,17,041,19*7C
$GPGSV,3,3,09,11,,,18*79
$GPRMC,000142.000,A,3328.7958,N,11205.2689,W,0.30,266.12,110317,,,D*72
$GPVTG,266.12,T,,M,0.30,N,0.55,K,D*3A
$GPGGA,000143.000,3328.7962,N,11205.2688,W,2,05,1.43,269.4,M,-26.6,M,0000,0000*5D
$GPGSA,A,3,17,28,13,30,08,,,,,,,,1.68,1.43,0.89*0F
$GPRMC,000143.000,A,3328.7962,N,11205.2688,W,0.22,235.70,110317,,,D*7A
$GPVTG,235.70,T,,M,0.22,N,0.41,K,D*3E
$GPGGA,000144.000,3328.7967,N,11205.2687,W,2,05,1.43,269.8,M,-26.6,M,0000,0000*5C
$GPGSA,A,3,17,28,13,30,08,,,,,,,,1.68,1.43,0.89*0F
$GPRMC,000144.000,A,3328.7967,N,11205.2687,W,0.15,247.52,110317,,,D*76
$GPVTG,247.52,T,,M,0.15,N,0.29,K,D*31
$GPGGA,000145.000,3328.7972,N,11205.2685,W,2,05,1.43,270.2,M,-26.6,M,0000,0000*59
$GPGSA,A,3,17,28,13,30,08,,,,,,,,1.68,1.43,0.89*0F
$GPRMC,000145.000,A,3328.7972,N,11205.2685,W,0.09,48.47,110317,,,D*45
$GPVTG,48.47,T,,M,0.09,N,0.17,K,D*08
$GPGGA,000146.000,3328.7977,N,11205.2684,W,2,05,1.43,270.6,M,-26.6,M,0000,0000*5A
$GPGSA,A,3,17,28,13,30,08,,,,,,,,1.68,1.43,0.89*0F
$GPRMC,000146.000,A,3328.7977,N,11205.2684,W,0.13,219.38,110317,,,D*77
$GPVTG,219.38,T,,M,0.13,N,0.24,K,D*3D
$GPGGA,000147.000,3328.7981,N,11205.2684,W,2,05,1.43,271.0,M,-26.6,M,0000,0000*55
$GPGSA,A,3,17,28,13,30,08,,,,,,,,1.68,1.43,0.89*0F
$GPGSV,3,1,10,30,74,030,36,28,63,323,39,07,46,106,26,48,45,214,37*73
$GPGSV,3,2,10,17,41,200,39,13,31,310,40,01,22,102,21,08,17,041,18*77
$GPGSV,3,3,10,09,14,171,,11,,,22*43
$GPRMC,000147.000,A,3328.7981,N,11205.2684,W,0.26,242.04,110317,,,D*78
$GPVTG,242.04,T,,M,0.26,N,0.48,K,D*30
$GPGGA,000148.000,3328.7987,N,11205.2682,W,2,05,1.43,271.4,M,-26.6,M,0000,0000*5E
$GPGSA,A,3,17,28,13,30,08,,,,,,,,1.68,1.43,0.89*0F
$GPRMC,000148.000,A,3328.7987,N,11205.2682,W,0.25,273.01,110317,,,D*73
$GPVTG,273.01,T,,M,0.25,N,0.46,K,D*3A
$GPGGA,000149.000,3328.7992,N,11205.2679,W,2,05,1.43,271.9,M,-26.6,M,0000,0000*52
$GPGSA,A,3,17,28,13,30,08,,,,,,,,1.68,1.43,0.89*0F
$GPRMC,000149.000,A,3328.7992,N,11205.2679,W,0.08,145.73,110317,,,D*7E
$GPVTG,145.73,T,,M,0.08,N,0.14,K,D*31
$GPGGA,000150.000,3328.7997,N,11205.2679,W,2,05,1.43,272.4,M,-26.6,M,0000,0000*51
$GPGSA,A,3,17,28,13,30,08,,,,,,,,1.68,1.43,0.89*0F
$GPRMC,000150.000,A,3328.7997,N,11205.2679,W,0.05,180.83,110317,,,D*78
$GPVTG,180.83,T,,M,0.05,N,0.09,K,D*36
$GPGGA,000151.000,3328.8001,N,11205.2681,W,2,05,1.43,273.0,M,-26.6,M,0000,0000*5B
$GPGSA,A,3,17,28,13,30,08,,,,,,,,1.68,1.43,0.89*0F
$GPRMC,000151.000,A,3328.8001,N,11205.2681,W,0.29,287.96,110317,,,D*79
$GPVTG,287.96,T,,M,0.29,N,0.53,K,D*37
$GPGGA,000152.000,3328.8005,N,11205.2682,W,2,05,1.43,273.6,M,-26.6,M,0000,0000*59
$GPGSA,A,3,17,28,13,30,08,,,,,,,,1.68,1.43,0.89*0F
$GPGSV,3,1,10,30,75,031,39,28,63,323,39,07,46,106,25,48,45,214,39*71
$GPGSV,3,2,10,17,41,200,40,13,31,310,43,01,22,102,23,08,17,041,18*78
$GPGSV,3,3,10,09,14,171,25,11,,,29*4F
$GPRMC,000152.000,A,3328.8005,N,11205.2682,W,0.14,299.75,110317,,,D*71
$GPVTG,299.75,T,,M,0.14,N,0.26,K,D*39
$GPGGA,000153.000,3328.8009,N,11205.2683,W,2,05,1.43,274.1,M,-26.6,M,0000,0000*55
$GPGSA,A,3,17,28,13,30,08,,,,,,,,1.68,1.43,0.89*0F
$GPRMC,000153.000,A,3328.8009,N,11205.2683,W,0.09,269.86,110317,,,D*72
$GPVTG,269.86,T,,M,0.09,N,0.17,K,D*34
$GPGGA,000154.000,3328.8013,N,11205.2683,W,2,05,1.43,274.7,M,-26.6,M,0000,0000*5F
$GPGSA,A,3,17,28,13,30,08,,,,,,,,1.68,1.43,0.89*0F
$GPRMC,000154.000,A,3328.8013,N,11205.2683,W,0.12,249.77,110317,,,D*78
$GPVTG,249.77,T,,M,0.12,N,0.22,K,D*34
$GPGGA,000155.000,3328.8018,N,11205.2682,W,2,05,1.43,275.3,M,-26.6,M,0000,0000*51
$GPGSA,A,3,17,28,13,30,08,,,,,,,,1.68,1.43,0.89*0F
$GPRMC,000155.000,A,3328.8018,N,11205.2682,W,0.06,168.88,110317,,,D*76
$GPVTG,168.88,T,,M,0.06,N,0.11,K,D*31
$GPGGA,000156.000,3328.8022,N,11205.2682,W,2,05,1.43,275.8,M,-26.6,M,0000,0000*50
$GPGSA,A,3,17,28,13,30,08,,,,,,,,1.68,1.43,0.89*0F
$GPRMC,000156.000,A,3328.8022,N,11205.2682,W,0.14,230.56,110317,,,D*72
$GPVTG,230.56,T,,M,0.14,N,0.26,K,D*3B
$GPGGA,000157.000,3328.8026,N,11205.2683,W,2,05,1.43,276.3,M,-26.6,M,0000,0000*5C
$GPGSA,A,3,17,28,13,30,08,,,,,,,,1.68,1.43,0.89*0F
$GPGSV,3,1,10,30,75,031,38,28,63,323,40,07,46,106,24,48,45,214,38*7E
$GPGSV,3,2,10,17,41,200,29,13,31,310,42,01,22,101,19,08,17,041,18*7C
$GPGSV,3,3,10,09,14,171,24,11,,,29*4E
$GPRMC,000157.000,A,3328.8026,N,11205.2683,W,0.27,264.68,110317,,,D*7A
$GPVTG,264.68,T,,M,0.27,N,0.51,K,D*37
$GPGGA,000158.000,3328.8032,N,11205.2682,W,2,05,1.43,276.8,M,-26.6,M,0000,0000*5C
$GPGSA,A,3,17,28,13,30,08,,,,,,,,1.68,1.43,0.89*0F
$GPRMC,000158.000,A,3328.8032,N,11205.2682,W,0.28,294.55,110317,,,D*7F
$GPVTG,294.55,T,,M,0.28,N,0.52,K,D*3A
$GPGGA,000159.000,3328.8038,N,11205.2682,W,2,05,1.43,277.3,M,-26.6,M,0000,0000*5D
$GPGSA,A,3,17,28,13,30,08,,,,,,,,1.68,1.43,0.89*0F
$GPRMC,000159.000,A,3328.8038,N,11205.2682,W,0.33,294.05,110317,,,D*7B
$GPVTG,294.05,T,,M,0.33,N,0.61,K,D*35
$GPGGA,000200.000,3328.8042,N,11205.2683,W,2,05,1.43,277.8,M,-26.6,M,0000,0000*55
$GPGSA,A,3,17,28,13,30,08,,,,,,,,1.68,1.43,0.89*0F
$GPRMC,000200.000,A,3328.8042,N,11205.2683,W,0.22,273.40,110317,,,D*70
$GPVTG,273.40,T,,M,0.22,N,0.41,K,D*3F
$GPGGA,000201.000,3328.8047,N,11205.2683,W,2,05,1.43,278.3,M,-26.6,M,0000,0000*55
$GPGSA,A,3,17,28,13,30,08,,,,,,,,1.68,1.43,0.89*0F
