humidity%(dht22),tempF(dht22),heatIndxF(dht22),tempF(thermocouple),accelXG(9DOF),accelYG(9DOF),accelZG(9DOF),gyroXdegPerSec(9DOF),gyroYdegPerSec(9DOF),gyroZdegPerSec(9DOF),magXuTesla(9DOF),magYuTesla(9DOF),magZuTesla(9DOF),roll(9DOF),pitch(9DOF),heading(9DOF),pascals(absPres),altitudeMeters(absPres),tempC(absPres),visibleChanlRaw(TSL2561),irChanlRaw(TSL2561),lum_lux(TSL2561),saturated?(TSL2561),UVIndx_mW/cm^2(ML8511),latitude(gps),longitude(gps),altitudeMeters(gps),fixQuality(gps),posDilution(gps),geoidHeightMeters(gps),numSatsTracked(gps),fixTime(gps),internalControllerTempC(tmp36),internalCameraTempC(tmp36),battLvl,millis
-1,-1,-1,79.72,-1.63,-3.16,9.73,1.63,-0.02,2.92,10.13,21.03,76.56,0.01,0.90,180.07,96575.25,402.81,25.19,115,22,44.67,good,17.62,0000.0000,00000.0000,0.0,0,0.0,0.0,00,115945.000,109.97,102.64,5.00,2967
24.50,78.44,77.14,80.15,-2.58,1.76,9.14,-0.25,0.03,-0.38,24.48,12.77,73.01,0.94,1.73,179.88,96573.25,402.88,25.19,277,52,108.31,good,17.66,0000.0000,00000.0000,0.0,0,0.0,0.0,00,115949.000,99.22,103.13,5.00,5111
25.10,78.44,77.16,80.51,0.60,0.12,7.81,-2.24,0.02,-1.80,27.99,16.81,71.32,1.22,1.56,179.47,96578.00,403.06,25.25,237,32,101.03,good,17.70,0000.0000,00000.0000,0.0,0,0.0,0.0,00,115952.000,101.66,104.11,5.00,8108
25.70,78.44,77.19,80.70,-3.22,-1.41,10.37,1.06,-0.14,-1.43,16.33,20.44,64.68,1.61,2.63,179.05,96578.00,403.06,25.25,593,72,257.71,good,17.81,0000.0000,00000.0000,0.0,0,0.0,0.0,00,115954.000,100.20,104.59,5.00,10106
25.70,78.44,77.19,80.70,-1.74,-1.75,9.23,2.03,0.56,4.06,12.86,17.01,57.47,1.89,3.34,179.21,96576.50,402.94,25.31,101,16,41.53,good,17.62,0000.0000,00000.0000,0.0,0,0.0,0.0,00,115956.000,101.66,106.55,5.00,12106
29.00,78.44,77.35,80.51,-0.33,1.45,10.98,0.89,-1.95,3.11,1.79,17.43,65.09,2.90,3.50,179.41,96576.25,403.25,25.31,375,55,157.08,good,17.73,0000.0000,00000.0000,0.0,0,0.0,0.0,00,115958.000,100.68,103.62,5.00,14104
29.00,78.44,77.35,80.45,2.62,-1.10,12.47,2.76,1.26,6.45,5.61,31.68,74.52,3.73,3.47,179.74,96573.50,403.13,25.31,152,21,64.49,good,17.81,0000.0000,00000.0000,0.0,0,0.0,0.0,00,120000.000,100.20,103.13,5.00,16103
28.30,78.26,77.12,80.33,-0.49,-0.02,12.17,0.50,-0.48,-1.30,29.62,26.35,77.27,4.20,3.55,179.30,96576.75,403.38,25.31,536,65,232.98,good,17.81,0000.0000,00000.0000,0.0,0,0.0,0.0,00,120002.000,100.20,105.08,5.00,18102
28.30,78.26,77.12,80.21,-1.00,-1.06,12.20,-0.54,1.20,-1.72,36.46,23.59,87.84,4.11,3.83,178.92,96575.25,403.00,25.37,57,9,23.46,good,17.73,0000.0000,00000.0000,0.0,0,0.0,0.0,00,120004.000,100.20,108.50,5.00,20101
27.30,78.26,77.07,80.09,-1.27,-0.39,10.05,-1.73,-5.87,-0.06,29.15,25.98,88.13,4.13,3.55,178.65,96576.50,402.94,25.37,99,16,40.50,good,17.84,0000.0000,00000.0000,0.0,0,0.0,0.0,00,120006.000,101.66,102.64,5.00,22100
26.70,78.26,77.04,80.09,-1.32,-1.22,9.81,0.23,2.03,-0.23,23.81,34.60,84.12,4.35,4.28,178.28,96580.00,402.81,25.37,42,7,17.04,good,17.81,0000.0000,00000.0000,0.0,0,0.0,0.0,00,120010.000,100.68,103.13,5.00,26098
27.30,78.08,76.87,79.91,-1.44,-2.57,8.78,0.05,0.71,-0.30,31.13,44.53,80.96,4.26,4.99,177.65,96585.25,402.44,25.44,40,7,16.00,good,17.81,0000.0000,00000.0000,0.0,0,0.0,0.0,00,120014.000,100.20,103.62,5.00,30096
28.50,78.26,77.13,79.72,-1.98,-3.82,9.29,-1.68,-0.19,0.67,41.81,6.91,76.09,2.81,5.30,177.62,96588.25,402.13,25.56,59,9,24.49,good,17.81,0000.0000,00000.0000,0.0,0,0.0,0.0,00,120017.000,101.17,107.53,5.00,33094
33.90,78.44,77.58,79.72,-1.46,-2.37,9.26,-1.01,-0.16,-0.40,36.31,2.22,72.32,1.77,5.47,177.55,96588.00,402.06,25.56,49,7,20.65,good,17.84,0000.0000,00000.0000,0.0,0,0.0,0.0,00,120019.000,101.17,104.59,5.00,35091
38.10,78.62,77.97,79.66,-0.68,-3.90,9.68,-0.16,-0.27,-0.38,40.84,4.78,76.21,0.61,5.38,177.39,96588.50,401.75,25.62,46,7,19.10,good,17.84,0000.0000,00000.0000,0.0,0,0.0,0.0,00,120021.000,100.68,102.15,5.00,37089
38.10,78.62,77.97,79.60,-0.84,-4.36,9.93,0.56,0.42,-2.30,47.68,6.08,83.62,-0.47,5.40,177.01,96592.50,401.44,25.69,64,12,25.04,good,17.81,0000.0000,00000.0000,0.0,0,0.0,0.0,00,120023.000,100.68,103.13,5.00,39089
40.30,78.62,78.08,79.60,-1.70,-4.04,9.06,0.91,1.74,-1.87,38.19,12.54,97.34,-1.28,5.85,176.60,96596.00,401.50,25.69,1996,234,872.37,good,17.62,0000.0000,00000.0000,0.0,0,0.0,0.0,00,120025.000,100.68,107.04,5.00,41092
44.00,78.80,78.45,79.54,1.36,-0.93,10.03,-5.73,1.02,5.48,-0.79,10.82,95.13,-1.64,5.50,177.11,96596.25,400.88,25.75,2922,339,1279.19,good,17.62,0000.0000,00000.0000,0.0,0,0.0,0.0,00,120027.000,100.20,106.55,5.00,43083
44.00,78.80,78.45,79.54,0.46,-2.20,10.26,0.59,-0.48,-2.84,3.33,16.79,94.59,-1.60,5.35,176.69,96599.25,401.31,25.69,1019,123,443.27,good,17.62,0000.0000,00000.0000,0.0,0,0.0,0.0,00,120029.000,101.17,107.53,5.00,45082
43.50,78.80,78.42,79.48,0.27,0.00,8.71,-0.09,-2.49,1.63,6.32,18.17,92.33,-0.94,5.07,176.75,96596.75,401.50,25.69,1686,187,743.10,good,17.58,0000.0000,00000.0000,0.0,0,0.0,0.0,00,120031.000,100.68,103.62,5.00,47079
43.50,78.80,78.42,79.48,0.85,-0.26,9.28,0.27,1.31,0.01,4.84,20.75,97.48,-0.37,5.04,176.64,96602.75,400.00,25.69,640,75,279.74,good,17.62,0000.0000,00000.0000,0.0,0,0.0,0.0,00,120033.000,101.17,102.15,5.00,49080
38.30,78.98,78.38,79.48,0.63,0.50,9.89,0.20,-0.35,0.21,2.46,22.27,95.22,0.43,4.98,176.56,96629.00,397.19,25.69,579,67,253.57,good,17.62,0000.0000,00000.0000,0.0,0,0.0,0.0,00,120035.000,100.68,106.55,5.00,51076
35.80,78.98,78.26,79.48,0.43,-0.12,9.91,-0.55,0.66,-0.14,7.62,18.90,96.05,0.79,4.91,176.46,96661.50,394.06,25.69,387,47,168.18,good,17.66,0000.0000,00000.0000,0.0,0,0.0,0.0,00,120037.000,100.68,106.55,5.00,53074
35.80,78.98,78.26,79.54,-2.48,-1.69,9.55,0.16,1.16,-0.20,12.34,16.15,98.49,0.64,5.63,176.33,96705.50,390.06,25.75,888,101,389.93,good,17.66,0000.0000,00000.0000,0.0,0,0.0,0.0,00,120039.000,100.68,104.11,5.00,55075
34.80,78.98,78.21,79.54,-4.76,-1.97,8.50,-0.70,2.78,-1.82,9.09,12.44,93.14,0.25,7.12,176.04,96745.50,387.13,25.75,1622,187,710.77,good,17.73,0000.0000,00000.0000,0.0,0,0.0,0.0,00,120041.000,100.68,107.53,5.00,57072
34.80,78.98,78.21,79.60,-6.28,0.65,8.07,1.57,0.24,2.45,13.74,12.17,95.20,0.90,8.68,176.27,96776.50,384.38,25.75,1522,186,660.71,good,17.77,0000.0000,00000.0000,0.0,0,0.0,0.0,00,120043.000,101.17,107.04,5.00,59071
33.60,79.16,78.36,79.60,-5.67,2.01,8.33,-0.27,-0.20,0.07,10.82,14.64,98.93,1.71,9.96,176.32,96807.50,382.63,25.75,843,121,354.82,good,17.81,0000.0000,00000.0000,0.0,0,0.0,0.0,00,120045.000,102.15,104.11,5.00,61069
33.60,79.16,78.36,79.72,-4.78,1.54,8.03,-0.90,-1.60,-1.69,9.84,14.87,101.91,2.26,10.87,176.18,96818.00,381.81,25.75,1204,164,512.34,good,17.70,0000.0000,00000.0000,0.0,0,0.0,0.0,00,120047.000,102.15,103.13,5.00,63068
38.70,79.16,78.59,79.72,-3.44,-1.26,9.04,1.94,2.47,-4.80,5.30,11.08,103.58,2.02,11.65,175.60,96818.00,382.56,25.75,1314,151,576.09,good,17.81,0000.0000,00000.0000,0.0,0,0.0,0.0,00,120051.000,102.15,102.15,5.00,67066
37.60,79.34,78.74,79.84,-3.84,-1.95,7.96,-0.93,0.50,2.23,0.95,15.48,77.80,1.64,12.53,175.65,96820.00,382.25,25.75,385,46,167.76,good,17.81,0000.0000,00000.0000,0.0,0,0.0,0.0,00,120055.000,101.17,104.11,5.00,71064
54.00,79.52,80.73,79.84,-4.63,-3.58,9.29,0.59,0.02,-0.36,21.68,19.29,75.32,1.10,13.30,175.22,96815.75,382.38,25.75,662,84,285.51,good,17.77,0000.0000,00000.0000,0.0,0,0.0,0.0,00,120058.000,100.68,108.50,5.00,74061
57.10,79.52,80.99,79.84,-3.90,-0.85,10.90,-1.53,-3.29,1.57,18.73,15.27,76.22,1.06,13.36,175.21,96813.00,382.25,25.75,689,89,296.19,good,17.77,0000.0000,00000.0000,0.0,0,0.0,0.0,00,120100.000,101.17,102.64,5.00,76058
57.10,79.52,80.99,79.78,-3.39,-0.49,10.70,0.59,-0.19,-2.87,20.67,12.53,81.37,1.10,13.60,174.80,96814.75,382.38,25.69,465,58,201.15,good,17.77,0000.0000,00000.0000,0.0,0,0.0,0.0,00,120102.000,101.17,103.13,5.00,78059
58.20,79.70,81.29,79.84,-2.75,-2.58,11.19,-0.71,0.44,-2.51,25.69,10.37,79.07,0.41,13.68,174.33,96819.50,382.50,25.69,579,71,251.20,good,17.77,0000.0000,00000.0000,0.0,0,0.0,0.0,00,120104.000,102.64,103.13,5.00,80057
55.10,79.70,81.00,79.84,-2.98,-2.72,9.11,-2.74,-1.00,1.11,20.76,15.48,79.15,-0.33,13.87,174.13,96817.75,382.38,25.69,667,82,289.26,good,17.81,0000.0000,00000.0000,0.0,0,0.0,0.0,00,120106.000,102.15,108.50,5.00,82055
55.10,79.70,81.00,79.84,-3.21,-0.48,9.53,1.24,-1.04,-3.57,16.87,16.09,71.78,0.01,14.12,173.60,96817.50,382.06,25.69,390,47,169.70,good,17.81,0000.0000,00000.0000,0.0,0,0.0,0.0,00,120108.000,101.17,109.48,5.00,84054
52.40,79.88,80.92,79.84,-4.44,-0.22,9.75,3.89,0.45,5.79,12.69,19.23,67.73,1.04,14.87,174.01,96815.75,382.56,25.69,47,7,19.62,good,17.81,0000.0000,00000.0000,0.0,0,0.0,0.0,00,120110.000,101.17,106.06,5.00,86052
52.40,79.88,80.92,79.84,-0.45,0.33,10.21,-0.54,2.09,6.03,11.14,24.15,67.19,1.87,14.73,174.43,96815.75,382.63,25.69,590,74,254.98,good,17.81,0000.0000,00000.0000,0.0,0,0.0,0.0,00,120112.000,102.15,106.06,5.00,88052
42.80,79.70,79.95,79.97,-1.85,-2.81,10.01,-4.99,-0.27,-7.46,7.13,18.40,62.88,0.85,14.71,173.31,96813.25,382.38,25.69,339,53,139.86,good,17.84,0000.0000,00000.0000,0.0,0,0.0,0.0,00,120114.000,101.66,104.59,5.00,90049
42.80,79.70,79.95,80.09,-1.72,-3.68,8.12,-2.15,-0.66,-2.73,-0.59,18.21,63.53,-0.07,14.83,172.63,96814.00,382.56,25.69,24,4,9.74,good,17.81,0000.0000,00000.0000,0.0,0,0.0,0.0,00,120116.000,103.13,104.59,5.00,92048
36.90,80.06,79.72,80.21,-2.23,-3.69,7.45,2.72,0.99,-1.64,-4.94,19.24,72.78,-0.51,15.36,172.08,96813.25,382.69,25.69,5,1,1.91,good,17.84,0000.0000,00000.0000,0.0,0,0.0,0.0,00,120118.000,101.17,107.53,5.00,94046
32.90,80.24,79.54,80.33,-2.14,-3.30,10.68,-0.02,-1.58,-1.87,-6.56,22.40,74.69,-0.71,15.45,171.59,96811.50,382.56,25.69,3,0,1.46,good,17.84,0000.0000,00000.0000,0.0,0,0.0,0.0,00,120120.000,102.64,104.11,5.00,96047
32.90,80.24,79.54,80.45,-0.76,-1.21,12.05,-1.75,2.97,0.87,-5.92,4.18,70.36,-0.99,15.20,171.62,96815.25,382.44,25.69,3,0,1.46,good,17.84,0000.0000,00000.0000,0.0,0,0.0,0.0,00,120122.000,101.66,104.11,5.00,98053
31.50,80.24,79.44,80.51,-1.52,-2.19,11.69,-0.87,-0.90,0.63,-5.07,7.52,67.69,-1.28,14.83,171.56,96815.75,382.44,25.75,3,0,1.46,good,17.84,0000.0000,00000.0000,0.0,0,0.0,0.0,00,120124.000,101.17,104.59,5.00,100055
31.50,80.24,79.44,80.70,-2.92,-2.92,10.76,-0.37,1.27,-1.27,0.85,17.68,65.18,-1.42,15.28,171.15,96815.25,382.69,25.75,4,1,1.38,good,17.81,0000.0000,00000.0000,0.0,0,0.0,0.0,00,120126.000,101.66,104.59,5.00,102055
30.90,80.60,79.62,80.76,-1.66,-2.38,11.38,-0.61,-1.88,-1.08,-3.13,14.93,65.70,-1.49,15.04,170.85,96814.75,382.56,25.75,6,1,2.43,good,17.81,0000.0000,00000.0000,0.0,0,0.0,0.0,00,120128.000,101.66,104.59,5.00,104053
29.60,80.60,79.53,80.88,-3.02,-2.45,7.91,0.45,-0.01,3.98,2.99,19.04,62.67,-1.43,15.67,170.91,96814.75,382.38,25.75,10,3,3.03,good,17.81,0000.0000,00000.0000,0.0,0,0.0,0.0,00,120132.000,101.66,104.59,5.00,108050
29.20,80.60,79.50,81.06,-5.57,-1.32,8.78,-0.99,1.83,2.79,18.33,32.94,67.84,-0.98,17.06,170.66,96821.00,382.13,25.81,10,3,3.03,good,17.84,0000.0000,00000.0000,0.0,0,0.0,0.0,00,120135.000,101.66,105.08,5.00,111049
28.00,80.78,79.53,81.06,-0.83,-5.64,8.31,-5.23,-0.80,-1.67,0.59,39.38,84.05,-2.27,17.08,169.69,96819.50,382.56,25.81,52,13,17.89,good,17.84,0000.0000,00000.0000,0.0,0,0.0,0.0,00,120137.000,103.13,107.53,5.00,113047
28.00,80.78,79.53,81.18,-0.78,-5.80,8.54,4.27,-1.13,0.57,-4.43,17.01,65.88,-2.78,16.82,169.23,96818.25,382.25,25.87,5,1,1.91,good,17.81,0000.0000,00000.0000,0.0,0,0.0,0.0,00,120139.000,101.17,104.59,5.00,115047
28.00,80.78,79.53,81.31,1.47,-4.39,8.78,-3.27,5.55,-3.87,-7.44,4.10,64.08,-4.21,16.27,168.47,96814.50,382.25,25.87,5,1,1.91,good,17.84,0000.0000,00000.0000,0.0,0,0.0,0.0,00,120141.000,101.17,106.55,5.00,117043
28.00,80.78,79.53,81.31,3.52,-2.57,9.36,-0.81,-1.09,2.41,-17.69,1.92,77.75,-4.54,14.65,168.62,96817.25,382.56,25.87,23,4,9.22,good,17.81,0000.0000,00000.0000,0.0,0,0.0,0.0,00,120143.000,101.66,105.08,5.00,119045
29.60,81.14,79.87,81.43,-0.77,0.85,10.40,1.42,0.78,1.71,-8.66,8.92,66.56,-3.42,14.55,168.90,96816.00,382.25,25.94,31,5,12.69,good,17.84,0000.0000,00000.0000,0.0,0,0.0,0.0,00,120145.000,101.66,103.62,5.00,121042
26.30,81.50,79.88,81.43,0.38,0.18,8.57,1.46,-1.19,-1.52,-7.37,17.31,64.55,-2.38,14.13,168.71,96814.75,382.31,25.94,87,13,36.29,good,17.84,0000.0000,00000.0000,0.0,0,0.0,0.0,00,055721.000,103.13,109.97,5.00,123040
26.30,81.50,79.88,81.43,0.77,-0.53,8.98,1.08,-0.67,2.35,-8.81,17.71,68.21,-1.63,13.67,168.86,96816.75,382.25,25.94,40,7,16.00,good,17.84,0000.0000,00000.0000,0.0,0,0.0,0.0,00,055723.000,101.66,105.08,5.00,125040
25.30,81.32,79.70,81.49,-0.55,0.78,8.43,-0.59,1.50,10.05,6.27,25.82,62.33,-0.30,13.82,169.66,96815.50,382.44,25.94,11,2,4.35,good,17.84,0000.0000,00000.0000,0.0,0,0.0,0.0,00,055725.000,102.15,104.59,5.00,127038
25.30,81.32,79.70,81.55,0.51,0.43,7.23,1.66,-0.36,-2.76,-8.79,19.55,67.61,0.62,13.43,169.35,96819.50,382.13,26.00,6,1,2.43,good,17.81,0000.0000,00000.0000,0.0,0,0.0,0.0,00,055727.000,101.66,103.62,5.00,129055
23.70,81.32,79.61,81.55,0.31,-1.75,8.53,4.77,5.27,9.73,6.06,36.12,70.09,1.59,13.77,169.84,96817.00,382.00,26.00,10,3,3.03,good,17.84,0000.0000,00000.0000,0.0,0,0.0,0.0,00,055729.000,102.15,109.97,5.00,131041
23.70,81.32,79.61,81.49,1.00,-0.80,10.12,-2.52,-1.45,-0.05,1.93,32.19,68.54,1.85,13.23,169.48,96818.25,382.25,26.00,15,5,4.10,good,17.81,0000.0000,00000.0000,0.0,0,0.0,0.0,00,055731.000,102.15,109.48,5.00,133042
22.50,81.68,79.77,81.55,-0.36,-0.04,8.36,-2.09,0.19,2.50,1.21,24.34,59.70,2.31,13.17,169.52,96821.00,382.13,26.06,26,9,6.81,good,17.84,0000.0000,00000.0000,0.0,0,0.0,0.0,00,055733.000,101.66,108.50,5.00,135042
21.30,82.22,80.07,81.61,0.25,0.98,12.41,0.64,0.27,3.35,-0.62,17.95,61.56,3.08,12.75,169.82,96822.50,381.81,26.06,10,4,2.11,good,17.81,0000.0000,00000.0000,0.0,0,0.0,0.0,00,055735.000,102.15,109.48,5.00,137039
21.30,82.22,80.07,81.67,-0.07,-0.09,12.70,1.33,-4.05,-3.29,-3.35,19.97,65.76,3.48,12.08,169.36,96819.75,382.13,26.06,13,5,2.94,good,17.81,0000.0000,00000.0000,0.0,0,0.0,0.0,00,055737.000,102.15,109.48,5.00,139039
21.10,82.40,80.19,81.67,0.62,-0.67,11.48,1.98,-0.16,-0.01,-3.31,22.53,66.43,3.90,11.71,169.21,96818.25,382.13,26.12,5,2,1.06,good,17.81,0000.0000,00000.0000,0.0,0,0.0,0.0,00,055739.000,101.66,108.02,5.00,141036
20.30,82.76,80.40,81.73,0.19,-2.04,7.80,0.84,-0.22,0.71,3.07,32.91,73.76,3.78,11.53,168.89,96820.50,381.94,26.12,3,0,1.46,good,17.81,0000.0000,00000.0000,0.0,0,0.0,0.0,00,055741.000,101.66,107.04,5.00,143033
20.30,82.76,80.40,81.79,0.29,-1.93,7.96,0.51,0.24,-0.41,-1.96,28.04,70.11,3.61,11.39,168.53,96820.00,382.13,26.12,3,0,1.46,good,17.81,0000.0000,00000.0000,0.0,0,0.0,0.0,00,055743.000,102.15,105.08,5.00,145033
20.10,82.58,80.27,81.79,0.37,-1.69,8.26,1.16,0.20,-0.94,3.26,31.84,69.50,3.67,11.24,168.06,96817.25,382.13,26.19,2,0,0.97,good,17.81,0000.0000,00000.0000,0.0,0,0.0,0.0,00,055746.000,102.15,105.08,5.00,148030
20.00,82.58,80.26,81.85,-0.76,0.15,8.52,2.05,1.95,-1.62,3.30,26.56,64.46,4.35,11.55,167.70,96821.25,382.00,26.19,2,0,0.97,good,17.84,0000.0000,00000.0000,0.0,0,0.0,0.0,00,055748.000,102.15,105.08,5.00,150028
20.00,82.58,80.26,81.92,-0.85,-0.68,8.77,2.85,-1.12,0.05,5.54,31.19,65.16,4.89,11.59,167.37,96820.50,381.88,26.19,3,1,0.82,good,17.84,0000.0000,00000.0000,0.0,0,0.0,0.0,00,055750.000,102.15,108.99,5.00,152034
19.70,82.76,80.37,81.92,-0.11,-0.81,7.48,2.02,1.52,0.62,3.44,32.41,68.22,5.23,11.68,167.12,96819.50,382.06,26.25,4,1,1.38,good,17.81,3325.2763,-11155.8384,27.8,1,4.4,-27.6,03,055751.801,102.64,108.02,5.00,154119
19.30,83.30,80.74,81.98,0.02,-1.63,10.29,-3.04,1.56,0.30,0.91,29.89,65.88,4.87,11.72,166.85,96820.50,382.00,26.25,5,1,1.91,good,17.77,3325.2776,-11155.8366,28.0,1,4.4,-27.6,03,055753.801,102.15,103.62,5.00,156102
19.30,83.30,80.74,82.10,-0.38,0.09,11.01,-1.68,1.11,2.52,2.11,29.65,64.18,5.19,11.78,166.88,96820.25,382.25,26.25,18,6,4.92,good,17.81,3325.2764,-11155.8355,28.0,1,4.4,-27.6,03,055755.801,102.64,105.08,5.00,158098
19.10,83.48,80.86,82.16,-0.84,-0.93,10.83,0.70,0.94,1.53,3.28,30.49,65.93,5.43,11.93,166.75,96817.75,382.38,26.25,18,7,4.00,good,17.84,3325.2742,-11155.8330,28.3,1,4.4,-27.6,03,055757.801,102.15,108.02,5.00,160096
18.70,83.48,80.85,82.16,-0.52,-1.06,8.49,-1.03,-0.47,0.73,6.73,31.88,62.87,5.38,11.89,166.44,96818.50,382.19,26.31,14,7,1.55,good,17.84,3325.2743,-11155.8321,28.4,1,4.4,-27.6,03,055759.801,102.15,104.59,5.00,162092
18.70,83.48,80.85,82.16,-0.25,0.39,9.38,-0.23,-1.41,0.02,5.88,31.12,63.43,5.85,11.65,166.18,96815.75,382.44,26.31,2,0,0.97,good,17.84,3325.2742,-11155.8302,28.5,1,4.4,-27.6,03,055801.801,102.64,103.13,5.00,164092
18.50,83.30,80.71,82.22,-1.12,-0.59,8.85,-2.31,-0.41,-5.64,1.14,27.98,64.05,5.60,11.85,165.36,96816.75,382.44,26.37,2,0,0.97,good,17.84,3325.2745,-11155.8289,28.7,1,4.4,-27.6,03,055803.801,103.62,108.02,5.00,166088
18.10,83.30,80.69,82.34,-0.91,-0.71,11.21,0.50,0.20,5.48,6.22,26.81,64.52,5.80,11.75,165.68,96812.00,382.31,26.37,2,0,0.97,good,17.81,3325.2753,-11155.8277,28.7,1,4.4,-27.6,03,055805.801,103.62,103.62,5.00,168087
18.10,83.30,80.69,82.40,2.35,-0.83,10.84,-1.86,3.43,3.14,-4.44,27.17,69.03,5.73,11.33,165.85,96812.50,382.44,26.37,2,0,0.97,good,17.81,3325.2756,-11155.8263,28.8,1,4.4,-27.6,03,055807.801,102.64,103.62,5.00,170089
17.90,83.84,81.08,82.46,-0.03,-1.15,11.10,1.13,4.48,-1.83,2.41,28.64,65.92,5.80,11.64,165.44,96817.25,382.63,26.44,3,1,0.82,good,17.84,3325.2746,-11155.8247,28.7,1,4.4,-27.6,03,055809.801,102.15,105.08,5.00,172086
17.90,83.84,81.08,82.53,0.39,0.50,10.81,0.47,1.00,3.48,-0.24,26.46,66.70,6.28,11.38,165.67,96811.00,382.38,26.44,8,3,1.88,good,17.77,3325.2753,-11155.8236,28.5,1,4.4,-27.6,03,055811.801,103.62,108.02,5.00,174085
17.80,84.38,81.48,82.53,0.11,0.49,12.24,0.91,1.35,1.56,-0.43,27.01,66.57,6.73,11.27,165.70,96812.50,382.56,26.44,11,4,2.70,good,17.81,3325.2750,-11155.8219,28.2,1,4.4,-27.6,03,055813.801,102.64,105.08,5.00,176089
17.50,84.92,81.88,82.59,0.09,0.07,8.28,-2.02,-2.77,-4.67,0.57,26.77,64.40,6.64,10.81,165.03,96814.25,382.50,26.50,14,5,3.52,good,17.84,3325.2751,-11155.8201,28.1,1,4.4,-27.6,03,055815.801,102.64,105.57,5.00,178079
17.50,84.92,81.88,82.59,-0.55,-1.26,8.29,-3.97,2.20,-0.91,1.13,31.72,66.22,6.07,11.16,164.65,96816.00,382.44,26.50,13,5,2.94,good,17.81,3325.2750,-11155.8181,28.0,1,4.4,-27.6,03,055817.801,102.64,106.06,5.00,180077
17.30,84.92,81.87,82.65,-1.19,-0.70,10.68,4.51,-1.80,1.05,5.80,35.59,66.51,6.71,11.21,164.39,96811.50,382.38,26.50,13,4,3.85,good,17.84,3325.2751,-11155.8163,28.0,1,4.4,-27.6,03,055819.801,103.13,103.62,5.00,182074
17.30,84.92,81.87,82.65,0.42,-1.46,10.06,-1.89,2.27,-4.45,3.30,32.51,65.91,6.28,11.25,163.63,96813.75,382.69,26.50,14,4,4.41,good,17.81,3325.2753,-11155.8154,28.0,1,4.4,-27.6,03,055820.801,103.13,109.97,5.00,183072
17.00,84.56,81.59,82.71,0.23,-0.15,10.70,-1.81,2.58,-5.82,3.98,29.89,63.29,6.19,11.34,162.83,96811.25,382.56,26.56,20,6,6.05,good,17.84,3325.2760,-11155.8141,27.9,1,4.4,-27.6,03,055822.801,102.64,109.48,5.00,185073
17.00,84.56,81.59,82.71,-0.14,0.59,8.66,-1.98,0.05,2.34,8.93,27.90,62.03,6.39,11.08,162.88,96813.00,382.31,26.56,16,6,3.76,good,17.77,3325.2765,-11155.8124,27.9,1,4.4,-27.6,03,055824.801,103.13,108.99,5.00,187074
16.90,84.38,81.45,82.71,-0.11,-0.22,10.49,2.84,-2.10,0.04,-0.66,24.62,65.78,6.72,10.66,162.71,96817.50,382.19,26.56,12,4,3.28,good,17.84,3325.2770,-11155.8113,27.9,1,4.4,-27.6,03,055826.801,102.64,105.57,5.00,189070
16.90,84.02,81.18,82.77,-0.41,2.35,11.62,-0.45,3.66,1.73,-4.19,15.65,63.93,7.16,10.69,162.97,96816.25,382.13,26.62,8,3,1.88,good,17.84,3325.2766,-11155.8096,28.0,1,4.4,-27.6,03,055828.801,103.62,109.97,5.00,191067
16.90,84.02,81.18,82.77,-2.42,-1.47,6.69,6.44,-0.64,-4.32,-0.37,22.96,67.42,7.14,11.37,162.31,96820.25,382.00,26.62,5,2,1.06,good,17.84,3325.2752,-11155.8073,27.9,1,4.4,-27.6,03,055830.801,104.11,107.53,5.00,193066
17.30,83.84,81.06,82.77,0.60,-0.80,9.80,0.39,-3.30,-0.07,-7.92,22.29,72.58,6.90,10.58,162.14,96818.75,382.13,26.62,5,1,1.91,good,17.81,3325.2744,-11155.8054,28.0,1,4.4,-27.6,03,055832.801,102.64,107.04,5.00,195066
17.30,83.84,81.06,82.77,0.52,-0.90,9.71,-1.09,0.67,-3.13,-2.34,27.21,70.46,6.56,10.37,161.64,96818.75,382.06,26.62,10,3,3.03,good,17.81,3325.2740,-11155.8038,28.1,1,4.4,-27.6,03,055834.801,103.13,105.57,5.00,197066
17.80,83.84,81.08,82.77,0.63,-0.23,7.76,-0.63,1.11,3.57,0.97,27.69,64.98,6.63,10.07,161.82,96822.50,381.88,26.69,19,6,5.49,good,17.81,3325.2720,-11155.8010,28.1,1,4.4,-27.6,03,055836.801,102.64,105.57,5.00,199070
17.80,83.84,81.08,82.71,-0.54,0.72,7.96,-2.19,1.02,1.00,-5.49,17.27,64.01,6.62,10.05,161.91,96823.75,382.19,26.62,22,7,6.31,good,17.81,3325.2721,-11155.8001,28.0,1,4.4,-27.6,03,055838.801,103.13,106.55,5.00,201073
18.10,83.66,80.95,82.71,0.72,0.55,9.68,-5.76,-1.19,-1.63,-1.09,27.54,66.32,6.33,9.64,161.60,96820.25,381.69,26.69,9,3,2.46,good,17.84,3325.2718,-11155.7985,28.0,1,4.4,-27.6,03,055840.801,102.64,108.50,5.00,203058
18.10,83.66,80.95,82.77,0.36,-0.98,8.10,0.77,4.14,-1.71,1.66,28.34,66.49,6.22,9.86,161.23,96819.50,381.69,26.69,9,3,2.46,good,17.84,3325.2716,-11155.7974,28.0,1,4.4,-27.6,03,055842.801,102.64,108.50,5.00,205059
18.30,83.66,80.96,82.65,0.65,-0.18,10.33,-0.11,0.86,3.45,-3.61,21.06,66.33,6.25,9.53,161.49,96824.50,381.88,26.69,7,2,2.20,good,17.81,3325.2720,-11155.7954,28.0,1,4.4,-27.6,03,055844.801,103.13,107.53,5.00,207060
18.40,83.66,80.96,82.65,-0.54,-0.32,7.05,-2.66,0.95,-3.02,-4.02,25.82,66.50,5.96,9.84,161.03,96819.00,381.63,26.69,5,1,1.91,good,17.84,3325.2734,-11155.7946,28.0,1,4.4,-27.6,03,055846.801,103.13,108.99,5.00,209060
18.40,83.66,80.96,82.65,2.11,-0.39,7.88,-1.70,1.44,2.35,-14.16,21.87,71.99,5.77,9.31,161.18,96821.75,381.88,26.69,9,2,3.29,good,17.84,3325.2771,-11155.7952,27.8,1,4.4,-27.6,03,055848.801,104.11,106.55,5.00,211059
18.50,83.66,80.97,82.65,-0.60,-1.23,10.49,-2.25,0.80,24.93,-3.05,24.76,63.42,5.81,9.29,163.49,96823.00,381.88,26.69,2,0,0.97,good,17.84,3325.2796,-11155.7947,27.7,1,4.4,-27.6,03,055850.801,103.13,106.06,5.00,213056
18.40,83.66,80.96,82.65,1.73,0.37,9.71,-2.87,-3.05,-9.45,-9.42,-7.11,72.00,4.47,8.57,162.49,96822.00,382.00,26.69,2,0,0.97,good,17.81,3325.2809,-11155.7942,27.7,1,4.4,-27.6,03,055852.801,103.13,109.48,5.00,215051
18.40,83.66,80.96,82.65,-1.38,0.90,9.49,1.94,1.59,-0.71,-2.26,-1.13,67.59,4.30,8.80,162.43,96820.75,381.94,26.75,2,0,0.97,good,17.84,3325.2813,-11155.7932,27.7,1,4.4,-27.6,03,055854.801,103.13,106.06,5.00,217048
18.40,83.48,80.83,82.59,-1.22,0.50,10.07,-0.94,-2.39,0.37,-3.16,9.68,67.59,4.22,8.50,162.44,96822.25,381.88,26.75,2,0,0.97,good,17.81,3325.2810,-11155.7919,27.7,1,4.4,-27.6,03,055856.801,103.13,105.57,5.00,219049
18.40,83.48,80.83,82.53,-0.29,0.06,9.89,-2.51,0.10,-2.34,-5.35,10.84,65.69,3.90,8.30,162.18,96821.75,381.81,26.75,2,0,0.97,good,17.84,3325.2816,-11155.7913,27.7,1,4.5,-27.6,03,055858.801,103.13,106.06,5.00,221046
18.50,83.48,80.84,82.59,-0.54,1.61,7.49,-3.26,-0.27,5.10,-8.13,-0.79,65.85,3.76,8.19,162.72,96826.25,381.63,26.75,3,1,0.82,good,17.77,3325.2823,-11155.7904,27.7,1,4.5,-27.6,03,055901.801,103.62,106.06,5.00,224048
18.70,83.30,80.72,82.46,1.17,0.83,8.91,-5.23,-0.51,2.44,-11.49,5.48,63.52,3.37,7.56,162.98,96823.50,381.56,26.75,4,1,1.38,good,17.81,3325.2938,-11155.7935,37.5,1,7.6,-27.6,04,055903.801,103.13,108.02,5.00,226042
18.70,83.30,80.72,82.53,-1.43,-0.47,9.46,0.80,0.39,-1.64,-7.28,6.52,60.60,3.22,7.76,162.78,96823.50,381.88,26.75,6,2,1.64,good,17.84,3325.2922,-11155.7923,53.0,1,7.6,-27.6,04,055905.801,103.13,104.59,5.00,228036
18.70,83.30,80.72,82.53,0.28,1.85,11.94,4.32,0.49,2.36,-10.01,9.91,63.98,4.16,7.67,163.06,96822.50,381.69,26.75,6,2,1.64,good,17.77,3325.2895,-11155.7909,79.2,1,7.6,-27.6,04,055907.801,103.13,107.04,5.00,230039
18.70,83.30,80.72,82.46,0.17,0.49,10.63,0.91,-1.27,2.94,-5.07,20.03,64.69,4.65,7.55,163.26,96824.75,381.56,26.75,6,2,1.64,good,17.81,3325.2868,-11155.7894,98.0,1,7.7,-27.6,04,055909.801,103.62,107.53,5.00,232035
18.70,83.30,80.72,82.46,0.58,0.09,9.61,-3.71,0.52,4.93,-0.20,27.03,63.69,4.73,7.56,163.55,96824.75,381.88,26.75,4,1,1.38,good,17.84,3325.2838,-11155.7882,107.2,1,7.7,-27.6,04,055911.801,102.64,109.48,5.00,234031
18.70,83.30,80.72,82.46,-0.13,-0.04,9.18,-3.08,1.80,-3.18,1.78,27.17,63.27,4.72,7.93,163.03,96824.25,381.88,26.75,3,1,0.82,good,17.84,3325.2807,-11155.7872,118.0,1,7.7,-27.6,04,055913.801,103.13,109.48,5.00,236032
18.70,83.30,80.72,82.53,1.50,1.04,9.11,2.68,0.08,-3.75,-9.49,9.63,66.88,5.15,7.29,162.67,96826.50,381.69,26.75,2,0,0.97,good,17.77,3325.2766,-11155.7861,133.0,1,7.7,-27.6,04,055915.801,102.64,104.11,5.00,238032
18.80,83.30,80.72,82.40,2.50,2.18,10.61,0.07,1.87,-1.96,-10.08,-7.40,72.10,4.76,7.05,162.54,96825.50,381.56,26.75,2,0,0.97,good,17.84,3325.2707,-11155.7861,151.9,1,7.7,-27.6,04,055917.801,103.62,108.99,5.00,240030
18.80,83.30,80.72,82.40,1.63,4.58,7.34,-0.49,0.77,0.38,-14.21,-9.57,79.66,5.28,6.99,162.75,96824.75,381.44,26.75,2,0,0.97,good,17.84,3325.2636,-11155.7852,171.9,1,7.7,-27.6,04,055919.801,102.64,106.06,5.00,242030
18.80,83.12,80.59,82.40,0.20,0.25,7.93,-0.04,-7.03,-0.77,-1.09,16.37,63.07,5.38,6.11,162.56,96824.25,381.75,26.75,3,1,0.82,good,17.81,3325.2565,-11155.7846,193.3,1,7.7,-27.6,04,055921.801,103.62,105.57,5.00,244026
18.80,83.12,80.59,82.34,1.46,1.11,9.19,-3.94,-7.02,-13.16,-7.22,10.23,67.04,5.04,4.94,161.19,96825.75,381.63,26.75,3,0,1.46,good,17.81,3325.2505,-11155.7844,215.0,1,7.7,-27.6,04,055923.801,103.62,105.08,5.00,246037
18.90,83.12,80.59,82.34,2.60,1.18,9.83,1.02,0.64,13.36,-12.90,-2.99,74.78,4.84,4.57,162.54,96825.75,381.69,26.75,3,1,0.82,good,17.81,3325.2432,-11155.7822,248.7,1,7.8,-27.6,04,055925.801,103.13,105.08,5.00,248036
18.90,83.12,80.59,82.34,0.27,-0.49,11.70,-0.39,3.47,-5.20,-5.68,12.75,66.93,4.61,4.96,162.00,96827.25,381.56,26.75,5,2,1.06,good,17.77,3325.2361,-11155.7804,265.6,1,7.8,-27.6,04,055927.801,103.13,107.53,5.00,250025
19.00,83.12,80.60,82.34,1.15,-0.17,10.86,-2.79,-0.30,-6.11,-7.22,16.37,68.02,4.30,4.90,161.33,96827.00,381.44,26.75,4,1,1.38,good,17.81,3325.2271,-11155.7778,285.2,1,4.6,-27.6,05,055929.801,103.13,106.55,5.00,252045
18.90,83.12,80.59,82.40,-0.54,-0.38,9.26,1.03,1.04,0.26,-4.27,16.74,64.39,4.42,5.34,161.28,96826.50,381.56,26.75,5,1,1.91,good,17.81,3325.2245,-11155.7764,302.1,1,4.6,-27.6,05,055931.801,104.59,108.50,5.00,254042
18.90,83.12,80.59,82.34,-0.05,0.18,9.94,0.62,0.89,-0.97,-4.20,6.84,64.01,4.35,5.22,161.17,96824.25,381.44,26.75,5,1,1.91,good,17.81,3325.2232,-11155.7756,315.2,1,1.7,-27.6,06,055933.801,103.62,107.53,5.00,256052
18.90,83.12,80.59,82.34,0.30,1.80,10.66,-2.02,-4.52,-6.23,-8.88,5.42,66.93,4.33,4.70,160.54,96827.25,381.63,26.75,4,1,1.38,good,17.84,3325.2204,-11155.7732,326.7,1,1.7,-27.6,06,055935.801,103.13,105.08,5.00,258049
18.90,83.12,80.59,82.34,1.26,-0.66,9.21,5.94,3.22,-1.05,-6.23,21.91,67.19,4.94,5.06,160.30,96823.00,381.75,26.75,3,0,1.46,good,17.81,3325.2193,-11155.7718,335.3,1,1.7,-27.6,06,055937.801,103.62,105.57,5.00,260050
19.00,83.30,80.73,82.28,0.26,0.50,10.03,-3.72,-4.47,2.19,-2.20,1.94,63.18,4.24,4.32,160.48,96825.50,381.69,26.75,4,1,1.38,good,17.84,3325.2192,-11155.7710,342.1,1,1.7,-27.6,06,055939.801,104.11,109.97,5.00,262047
19.10,83.12,80.60,82.28,1.71,0.41,8.92,0.52,0.61,4.26,-10.80,13.98,70.05,4.46,4.19,160.86,96827.00,381.63,26.75,7,2,2.20,good,17.81,3325.2190,-11155.7688,348.1,1,1.7,-27.6,06,055942.801,103.62,108.02,5.00,265046
19.20,83.12,80.61,82.34,0.92,-0.41,8.19,-2.62,1.49,-0.84,-6.21,10.18,65.44,3.97,4.10,160.75,96825.50,381.44,26.75,14,4,4.41,good,17.84,3325.2192,-11155.7679,350.7,1,1.7,-27.6,06,055944.801,104.59,106.55,5.00,267045
19.50,83.12,80.62,82.28,0.16,-0.38,10.91,1.28,-1.16,-1.88,-5.01,6.25,66.77,3.83,3.82,160.54,96818.75,381.56,26.75,23,6,7.71,good,17.81,3325.2198,-11155.7667,352.2,1,1.7,-27.6,06,055946.801,103.62,105.08,5.00,269043
19.50,83.12,80.62,82.28,0.85,2.16,11.63,2.36,1.26,5.94,-6.75,10.33,67.16,4.60,3.85,161.15,96826.00,381.25,26.75,14,5,3.52,good,17.66,3325.2194,-11155.7653,353.8,1,1.7,-27.6,06,055948.801,104.59,109.48,5.00,271050
19.60,83.12,80.62,82.28,8.04,0.74,5.60,1.23,-1.58,0.10,-20.98,23.87,89.96,5.08,2.29,161.02,96827.75,381.69,26.75,14,4,4.41,good,17.84,3325.2193,-11155.7646,355.3,1,1.7,-27.6,06,055950.801,104.11,108.50,5.00,273046
19.60,83.12,80.62,82.22,6.47,-0.79,4.76,-3.66,5.75,1.80,-12.12,35.76,87.27,4.82,1.52,160.99,96822.50,381.44,26.75,42,11,14.04,good,17.84,3325.2196,-11155.7641,356.2,1,1.7,-27.6,06,055952.801,104.11,105.57,5.00,275043
19.70,83.12,80.63,82.22,7.24,-0.72,6.26,7.77,-0.16,-0.37,-12.46,33.37,85.55,5.73,0.38,160.68,96821.00,381.88,26.75,44,11,15.13,good,17.84,3325.2194,-11155.7632,356.6,1,1.7,-27.6,06,055954.801,105.08,107.04,5.00,277037
19.70,83.12,80.63,82.28,6.08,-0.38,8.76,-0.86,3.06,-2.93,-6.78,30.02,72.88,5.82,0.05,160.17,96823.50,381.88,26.75,5,1,1.91,good,17.81,3325.2191,-11155.7620,357.1,1,1.7,-27.6,06,055956.801,103.62,107.53,5.00,279043
19.70,83.12,80.63,82.22,2.12,-3.76,10.28,1.27,-2.34,0.42,3.92,38.70,75.46,5.36,0.06,159.85,96825.75,381.44,26.75,6,2,1.64,good,17.92,3325.2186,-11155.7599,357.9,1,1.7,-27.6,06,055958.801,105.57,107.04,5.00,281035
19.70,83.12,80.63,82.22,0.92,2.00,11.17,3.59,0.34,0.44,-4.46,14.90,65.21,6.18,0.42,159.84,96825.75,381.69,26.75,10,3,3.03,good,17.81,3325.2183,-11155.7579,358.6,1,1.7,-27.6,06,060000.801,104.11,106.55,5.00,283031
19.60,82.94,80.50,82.22,0.34,1.26,9.17,0.21,-1.46,-0.68,0.26,19.99,62.03,6.65,0.66,159.65,96823.00,381.75,26.75,7,2,2.20,good,17.81,3325.2179,-11155.7560,358.9,1,1.7,-27.6,06,060002.801,104.11,106.06,5.00,285028
19.60,82.94,80.50,82.22,0.84,-0.23,7.84,-5.52,-1.06,0.13,1.19,24.03,64.32,6.12,0.76,159.50,96825.50,381.88,26.69,8,3,1.88,good,17.81,3325.2177,-11155.7537,358.7,1,1.7,-27.6,06,060004.801,104.59,106.55,5.00,287030
19.80,82.94,80.50,82.22,0.10,-0.25,9.26,-2.39,0.85,1.81,-4.24,15.21,61.63,5.74,1.30,159.63,96823.75,381.75,26.69,10,3,3.03,good,17.84,3325.2171,-11155.7517,358.6,1,1.8,-27.6,06,060006.801,105.08,106.06,5.00,289027
19.80,82.94,80.50,82.16,0.83,0.35,11.04,-2.94,-3.70,-3.30,-5.12,13.50,66.13,5.41,1.14,159.23,96826.75,381.75,26.69,3,1,0.82,good,17.81,3325.2168,-11155.7503,359.0,1,1.8,-27.6,06,060008.801,104.11,106.55,5.00,291031
20.00,82.94,80.51,82.16,-0.05,-5.58,8.66,-3.76,1.77,-8.80,-7.43,14.16,68.73,3.41,1.96,158.27,96825.25,381.81,26.69,3,1,0.82,good,17.81,3325.2187,-11155.7505,359.0,1,1.8,-27.6,06,060010.801,104.11,109.97,5.00,293024
20.00,82.94,80.51,82.16,-0.09,-2.95,11.28,-4.98,3.83,-1.55,7.65,0.71,61.66,1.71,2.26,158.14,96824.50,381.75,26.69,4,1,1.38,good,17.84,3325.2194,-11155.7502,358.9,1,1.8,-27.6,06,060012.801,104.11,106.55,5.00,295033
19.90,82.76,80.38,82.16,-3.04,-0.04,8.65,0.10,1.54,2.79,18.85,-11.47,69.29,0.79,3.33,158.66,96824.25,381.69,26.69,6,2,1.64,good,17.77,3325.2195,-11155.7490,358.8,1,1.8,-27.6,06,060014.801,104.11,106.55,5.00,297025
19.90,82.76,80.38,82.16,-1.54,-5.10,7.26,-5.20,0.31,0.34,13.09,12.80,57.40,-1.18,3.83,158.52,96821.00,381.63,26.69,3,0,1.46,good,17.84,3325.2196,-11155.7480,358.5,1,1.8,-27.6,06,060016.801,104.59,105.57,5.00,299027
21.60,82.76,80.46,82.16,-3.77,-3.07,8.90,-0.70,1.33,-0.31,19.21,7.32,60.93,-2.09,4.85,158.43,96822.75,381.69,26.75,3,0,1.46,good,17.81,3325.2199,-11155.7471,358.3,1,1.8,-27.6,06,060018.801,104.59,110.46,5.00,301018
21.60,82.76,80.46,82.16,-4.62,-6.44,9.72,0.27,0.61,-0.13,15.39,11.64,60.11,-3.26,5.87,158.21,96824.50,381.56,26.75,3,0,1.46,good,17.84,3325.2200,-11155.7464,358.1,1,1.8,-27.6,06,060019.801,104.59,108.99,5.00,302019
21.40,82.94,80.58,82.16,-2.83,-5.44,7.89,0.55,1.80,2.41,18.97,9.42,61.83,-4.52,6.68,158.24,96823.75,381.63,26.75,3,0,1.46,good,17.84,3325.2194,-11155.7448,357.1,1,1.3,-27.6,07,060021.801,104.59,105.08,5.00,304023
20.90,82.94,80.55,82.22,-3.20,-3.71,7.12,-0.13,0.02,-1.73,13.22,12.51,59.48,-5.29,7.62,157.81,96824.75,381.56,26.75,3,1,0.82,good,17.81,3325.2194,-11155.7436,355.6,1,1.3,-27.6,07,060023.801,104.11,109.97,5.00,306024
20.90,82.94,80.55,82.28,-3.66,-4.38,6.60,-0.26,1.81,3.84,15.59,15.05,58.70,-6.16,8.94,157.82,96829.75,381.75,26.75,3,1,0.82,good,17.88,3325.2194,-11155.7425,354.0,1,1.3,-27.6,07,060025.801,105.08,107.53,5.00,308022
20.60,83.12,80.67,82.22,-4.44,-4.08,9.34,-1.10,0.45,3.02,16.18,9.65,58.53,-6.83,9.86,157.90,96824.50,381.63,26.75,4,1,1.38,good,17.84,3325.2196,-11155.7414,352.4,1,1.3,-27.6,07,060027.801,104.59,108.99,5.00,310014
20.60,83.12,80.67,82.28,-3.89,-3.56,5.92,0.22,-0.01,-1.68,15.83,16.60,60.31,-7.48,11.08,157.32,96831.00,381.44,26.75,4,1,1.38,good,17.81,3325.2201,-11155.7408,351.1,1,1.3,-27.6,07,060029.801,104.11,106.06,5.00,312015
20.30,83.30,80.78,82.34,-1.96,-3.43,6.71,-1.02,-3.55,1.24,16.98,41.29,76.52,-7.81,11.53,156.68,96828.25,381.25,26.75,4,1,1.38,good,17.84,3325.2207,-11155.7408,350.9,1,1.3,-27.6,07,060031.801,105.57,108.02,5.00,314015
19.90,83.30,80.76,82.46,-3.93,-7.89,5.80,-0.25,1.48,1.17,14.15,50.10,92.33,-9.05,13.04,155.72,96831.50,381.44,26.75,6,1,2.43,good,17.84,3325.2215,-11155.7415,351.3,1,1.1,-27.6,08,060033.801,104.59,108.02,5.00,316022
19.70,83.48,80.89,82.65,1.34,-8.77,6.74,2.37,2.20,-0.41,10.60,49.27,94.57,-10.12,13.13,154.55,96830.50,381.19,26.75,5,1,1.91,good,17.81,3325.2229,-11155.7419,352.0,1,1.1,-27.6,08,060035.801,105.08,110.46,5.00,318021
19.70,83.66,81.02,82.83,-2.76,-5.28,5.13,-0.05,0.30,-1.84,12.08,48.53,87.79,-11.09,14.28,153.27,96828.00,381.19,26.81,6,1,2.43,good,17.77,3325.2246,-11155.7423,352.7,1,1.1,-27.6,08,060037.801,104.59,105.57,5.00,320019
19.70,83.66,81.02,82.89,3.53,-7.32,4.23,-0.55,-0.92,-1.85,-14.45,35.70,99.59,-12.53,13.58,152.16,96828.50,381.13,26.81,8,2,2.75,good,17.81,3325.2264,-11155.7427,353.6,1,1.1,-27.6,08,060039.801,104.59,105.08,5.00,322013
19.60,83.84,81.14,83.01,4.43,-9.60,2.22,-1.58,-2.03,3.06,-9.05,41.51,113.40,-14.34,12.90,151.46,96829.50,381.50,26.81,8,1,3.46,good,17.81,3325.2279,-11155.7429,354.2,1,1.1,-27.6,08,060041.801,104.59,106.06,5.00,324013
19.70,83.66,81.02,83.07,4.93,-5.11,5.08,0.55,-1.39,3.62,-17.04,32.11,105.11,-14.76,11.84,151.09,96829.75,381.25,26.81,15,3,5.73,good,17.81,3325.2293,-11155.7432,354.3,1,1.1,-27.6,08,060043.801,105.08,106.06,5.00,326018
19.80,83.66,81.02,83.07,0.83,-4.58,8.10,2.49,3.14,-0.23,-11.18,30.88,79.83,-14.57,12.42,150.16,96829.00,381.13,26.81,7,1,2.95,good,17.81,3325.2309,-11155.7429,354.6,1,1.1,-27.6,08,060045.801,105.57,104.59,5.00,328007
19.80,83.66,81.02,83.07,-1.72,-1.76,8.89,1.42,-1.19,2.20,-0.72,16.94,62.15,-13.62,12.97,150.06,96829.25,381.25,26.81,5,1,1.91,good,17.81,3325.2324,-11155.7429,354.6,1,1.1,-27.6,08,060047.801,104.59,107.53,5.00,330008
19.70,83.66,81.02,83.26,-2.10,-0.82,6.45,0.71,0.80,3.67,-0.34,16.76,62.62,-12.60,14.01,150.14,96831.00,381.31,26.81,5,1,1.91,good,17.81,3325.2339,-11155.7427,354.3,1,1.1,-27.6,08,060049.801,104.59,105.08,5.00,332004
19.30,83.66,81.00,83.38,-4.49,2.06,10.11,-1.80,2.09,-1.52,10.02,-12.76,66.69,-12.15,14.57,150.28,96828.75,381.25,26.81,7,2,2.20,good,17.77,3325.2352,-11155.7429,354.3,1,1.1,-27.6,08,060051.801,104.59,105.57,5.00,334001
19.30,83.66,81.00,83.44,-4.31,5.08,8.26,-1.43,2.51,-3.66,9.96,-15.18,70.41,-11.05,15.26,150.41,96829.00,381.13,26.81,8,3,1.88,good,17.73,3325.2367,-11155.7431,354.9,1,1.1,-27.6,08,060053.801,104.59,104.59,5.00,336003
19.20,83.66,81.00,83.50,2.03,5.45,7.23,-0.49,1.52,-0.05,-12.41,-15.66,90.15,-9.09,14.26,150.91,96829.75,381.44,26.81,125,30,43.98,good,17.66,3325.2379,-11155.7426,356.2,1,1.1,-27.6,08,060055.801,104.59,109.48,5.00,338001
19.10,83.48,80.86,83.50,0.96,6.24,7.66,-0.24,1.32,3.91,-0.31,-20.72,79.83,-7.47,13.66,151.81,96828.50,380.94,26.87,174,46,57.83,good,17.73,3325.2391,-11155.7426,357.0,1,1.1,-27.6,08,060057.801,105.08,107.04,5.00,339998
19.10,83.48,80.86,83.50,-0.45,7.57,6.36,1.87,-3.73,-0.39,-1.58,-20.03,81.64,-5.45,13.03,152.38,96828.00,380.88,26.87,276,77,88.41,good,17.92,3325.2400,-11155.7423,358.1,1,1.1,-27.6,08,060059.801,104.59,107.53,5.00,341998
19.20,83.48,80.86,83.50,3.21,4.93,9.61,-1.05,-1.49,-3.18,-7.91,-5.60,70.98,-4.22,11.50,152.39,96829.75,381.19,26.87,3,1,0.82,good,17.77,3325.2420,-11155.7416,359.5,1,1.1,-27.6,08,060102.801,106.55,107.04,5.00,345001
19.50,83.48,80.88,83.50,-0.35,2.26,7.66,2.41,1.26,1.81,-8.46,-2.94,70.25,-2.94,11.21,152.76,96831.50,381.06,26.87,3,1,0.82,good,17.77,3325.2431,-11155.7413,360.3,1,1.1,-27.6,08,060104.801,104.59,110.95,5.00,346995
19.30,83.48,80.87,83.50,0.62,0.90,9.23,-0.03,-2.79,5.52,-4.06,0.22,66.16,-2.44,10.21,153.41,96832.50,381.19,26.87,3,0,1.46,good,17.77,3325.2446,-11155.7412,360.8,1,1.1,-27.6,08,060106.801,104.59,105.57,5.00,348986
19.30,83.48,80.87,83.44,1.17,1.79,7.23,-0.61,-2.98,-3.77,-9.09,-5.46,73.49,-1.93,8.98,153.16,96827.75,381.25,26.94,2,0,0.97,good,17.84,3325.2461,-11155.7408,361.2,1,1.1,-27.6,08,060108.801,104.59,109.97,5.00,350993
19.10,83.30,80.73,83.50,1.67,1.00,7.66,-0.73,-4.72,-2.12,-7.74,-4.66,69.36,-1.74,7.49,153.01,96829.00,381.63,26.87,2,0,0.97,good,17.84,3325.2477,-11155.7408,361.2,1,1.1,-27.6,08,060110.801,104.59,109.97,5.00,352981
19.10,83.30,80.73,83.50,1.63,1.60,7.37,2.70,0.61,3.94,-10.39,-2.73,72.86,-0.78,6.67,153.48,96826.50,381.25,26.94,2,0,0.97,good,17.84,3325.2496,-11155.7407,361.7,1,1.1,-27.6,08,060112.801,104.59,110.46,5.00,354982
18.80,83.30,80.72,83.50,1.23,1.69,7.05,3.16,1.59,2.22,-11.95,-4.35,75.97,0.06,6.30,153.76,96825.75,381.56,26.94,2,0,0.97,good,17.81,3325.2509,-11155.7404,362.2,1,1.1,-27.6,08,060114.801,105.08,107.53,5.00,356981
18.40,83.30,80.70,83.50,6.57,1.38,13.02,-2.57,5.34,3.98,-17.94,2.92,78.89,0.06,5.90,154.16,96828.00,381.44,26.94,4,1,1.38,good,17.84,3325.2520,-11155.7404,362.3,1,1.1,-27.6,08,060116.801,105.57,106.06,5.00,358978
18.40,83.30,80.70,83.44,3.09,0.89,11.33,0.55,-0.94,-8.55,-8.83,8.26,67.71,0.44,5.16,153.30,96826.00,381.44,26.94,3,1,0.82,good,17.81,3325.2527,-11155.7402,362.4,1,1.1,-27.6,08,060118.801,105.08,109.48,5.00,360980
18.30,83.30,80.70,83.56,2.86,0.59,9.55,-1.16,1.23,-0.73,-11.62,3.01,73.83,0.47,4.60,153.23,96830.50,381.19,27.00,3,1,0.82,good,17.77,3325.2538,-11155.7401,362.4,1,1.1,-27.6,08,060120.801,105.08,111.44,5.00,362983
18.50,83.30,80.71,83.50,1.12,-0.30,8.99,0.92,1.78,1.56,-13.86,10.66,74.87,0.61,4.90,153.31,96826.75,381.50,26.94,3,1,0.82,good,17.84,3325.2551,-11155.7402,362.4,1,1.1,-27.6,08,060122.801,105.08,107.53,5.00,364974
18.50,83.30,80.71,83.56,1.95,-1.26,8.45,0.21,-0.25,-0.06,-14.33,9.91,75.90,0.33,4.68,153.21,96828.00,381.44,27.00,3,1,0.82,good,17.84,3325.2570,-11155.7406,362.1,1,1.1,-27.6,08,060124.801,105.08,110.95,5.00,366978
18.50,83.30,80.71,83.56,0.81,-0.90,8.37,0.03,-0.27,-3.72,-11.53,5.51,71.84,0.04,4.63,152.79,96829.50,381.00,27.00,4,1,1.38,good,17.84,3325.2589,-11155.7410,361.1,1,1.1,-27.6,08,060126.801,105.08,110.46,5.00,368975
18.50,83.30,80.71,83.56,1.66,0.85,9.32,0.84,1.73,0.10,-12.30,11.91,71.65,0.60,4.79,152.74,96826.75,381.19,27.00,7,2,2.20,good,17.81,3325.2603,-11155.7413,360.4,1,1.1,-27.6,08,060128.801,105.08,106.55,5.00,370976
18.50,83.30,80.71,83.62,0.02,0.51,9.50,0.73,2.27,-1.66,-7.04,-0.33,68.29,0.71,4.89,152.59,96827.50,381.44,27.00,11,3,3.58,good,17.77,3325.2619,-11155.7416,359.8,1,1.1,-27.6,08,060130.801,106.06,109.48,5.00,372966
18.50,83.30,80.71,83.62,-1.37,1.51,7.03,-0.36,-0.07,-1.41,6.03,-17.31,73.00,0.18,5.45,152.64,96825.50,381.31,27.00,34,9,11.29,good,17.77,3325.2633,-11155.7418,359.0,1,1.1,-27.6,08,060132.801,105.08,112.90,5.00,374973
18.60,83.30,80.71,83.62,-3.15,1.76,9.95,1.73,-3.20,-2.26,7.02,-18.50,76.85,-0.22,5.95,152.61,96827.75,381.56,27.00,92,22,32.44,good,17.77,3325.2645,-11155.7421,358.4,1,1.1,-27.6,08,060134.801,105.08,106.55,5.00,376964
18.60,83.30,80.71,83.68,-1.17,2.73,8.92,-2.88,2.14,0.98,3.68,-18.75,74.81,-0.67,6.52,152.91,96828.25,381.44,27.06,149,36,52.24,good,17.73,3325.2659,-11155.7425,357.7,1,1.1,-27.6,08,060136.801,105.08,111.44,5.00,378973
18.70,83.30,80.72,83.62,-1.96,2.65,11.30,-2.15,-0.65,0.98,6.40,-17.94,73.59,-1.18,6.81,153.22,96827.25,381.63,27.06,273,66,95.68,good,17.73,3325.2671,-11155.7429,356.9,1,1.1,-27.6,08,060138.801,105.57,107.04,5.00,380962
18.70,83.30,80.72,83.62,1.21,5.83,10.23,-0.38,0.63,-2.05,-5.07,-18.63,80.98,-0.61,6.66,153.21,96826.00,381.56,27.06,501,121,175.69,good,17.69,3325.2679,-11155.7430,357.2,1,1.1,-27.6,08,060140.801,105.08,106.55,5.00,382960
18.40,83.48,80.83,83.68,0.68,5.11,10.77,-0.31,0.33,-0.13,-1.61,-18.54,78.97,-0.30,6.56,153.40,96823.25,381.63,27.06,18,7,4.00,good,17.88,3325.2691,-11155.7430,358.0,1,1.1,-27.6,08,060143.801,106.55,108.50,5.00,385969
18.00,83.48,80.82,83.68,2.10,5.48,11.00,0.22,-0.13,2.77,-6.61,-16.11,82.42,0.27,6.16,153.83,96823.75,381.75,27.06,6,2,1.64,good,17.77,3325.2704,-11155.7430,358.8,1,1.1,-27.6,08,060145.801,105.08,106.55,5.00,387955
18.00,83.48,80.82,83.74,1.79,5.92,10.40,2.20,-1.62,-0.75,-9.46,-11.19,77.93,1.28,5.72,153.89,96825.50,381.25,27.06,20,5,6.88,good,17.69,3325.2713,-11155.7432,360.0,1,1.1,-27.6,08,060147.801,105.57,108.02,5.00,389958
17.80,83.66,80.94,83.74,2.36,5.91,11.07,0.07,1.99,-0.41,-10.76,-3.02,72.97,2.28,5.48,153.96,96823.25,381.56,27.06,36,10,11.57,good,17.77,3325.2726,-11155.7440,361.1,1,1.1,-27.6,08,060149.801,105.08,106.06,5.00,391958
17.90,83.66,80.95,83.74,2.51,4.29,8.02,2.27,3.78,3.84,-10.31,4.34,72.11,3.75,5.10,154.46,96827.00,381.44,27.12,32,9,10.19,good,17.84,3325.2736,-11155.7451,362.2,1,1.1,-27.6,08,060151.801,105.57,107.04,5.00,393946
17.90,83.66,80.95,83.74,1.31,2.07,7.57,-7.18,1.30,-2.29,-4.50,13.81,63.71,3.81,4.85,154.26,96824.50,381.44,27.12,23,7,6.87,good,17.84,3325.2735,-11155.7465,362.5,1,1.1,-27.6,08,060153.801,105.08,106.55,5.00,395956
17.90,83.84,81.08,83.81,0.34,-0.68,7.21,-1.30,-1.52,1.13,1.24,24.93,66.39,3.66,4.80,154.17,96827.75,381.50,27.12,2,0,0.97,good,17.84,3325.2739,-11155.7477,362.4,1,1.1,-27.6,08,060155.801,105.08,107.04,5.00,397951
17.90,83.84,81.08,83.81,1.18,0.27,8.09,1.05,2.29,2.20,5.28,29.05,68.41,4.16,4.84,154.20,96824.75,381.25,27.12,2,0,0.97,good,17.84,3325.2740,-11155.7490,361.7,1,1.0,-27.6,09,060157.801,105.57,107.53,5.00,399964
18.30,83.84,81.09,83.74,2.82,1.29,9.22,0.85,0.35,4.64,-2.58,25.38,68.62,4.89,4.35,154.53,96825.75,381.25,27.12,2,0,0.97,good,17.84,3325.2739,-11155.7507,360.6,1,1.0,-27.6,09,060159.801,105.08,110.95,5.00,401964
18.70,83.84,81.11,83.81,1.12,0.89,11.09,-0.17,1.36,0.06,-3.29,27.01,69.75,5.30,4.60,154.38,96830.75,381.50,27.12,2,0,0.97,good,17.77,3325.2735,-11155.7517,359.9,1,1.0,-27.6,09,060200.801,105.57,107.04,5.00,402962
18.70,83.84,81.11,83.81,0.40,3.15,9.96,-1.91,3.14,-8.70,4.03,26.12,63.67,6.06,5.09,153.44,96828.00,381.19,27.19,2,0,0.97,good,17.81,3325.2727,-11155.7541,358.3,1,1.0,-27.6,09,060202.801,105.57,109.97,5.00,404962
18.80,83.84,81.11,83.81,-2.46,-1.63,11.47,3.43,-0.42,-4.23,9.22,38.67,71.06,6.17,5.93,152.69,96829.50,381.31,27.12,3,0,1.46,good,17.84,3325.2723,-11155.7569,356.9,1,1.0,-27.6,09,060204.801,105.57,107.53,5.00,406946
18.80,83.84,81.11,83.81,3.82,1.75,9.60,1.02,3.74,4.08,-9.33,19.53,69.11,6.76,5.44,153.10,96826.00,381.44,27.19,5,1,1.91,good,17.81,3325.2719,-11155.7594,357.2,1,1.0,-27.6,09,060206.801,106.55,107.53,5.00,408956
19.10,83.84,81.12,83.81,-0.03,7.02,2.94,-0.59,3.30,4.31,3.72,-5.07,61.75,8.38,5.78,153.91,96825.75,381.38,27.19,3,0,1.46,good,17.81,3325.2717,-11155.7615,358.9,1,1.0,-27.6,09,060208.801,104.59,111.44,5.00,410962
19.00,83.84,81.12,83.74,0.26,2.23,12.35,-3.91,2.40,-2.83,-1.50,29.30,63.06,8.49,6.23,153.53,96828.50,381.25,27.19,2,0,0.97,good,17.81,3325.2722,-11155.7637,360.2,1,1.0,-27.6,09,060210.801,105.57,106.55,5.00,412944
19.00,83.84,81.12,83.81,3.04,5.03,11.26,1.41,-2.33,-2.54,-5.05,24.96,67.88,9.66,5.48,153.25,96830.50,381.38,27.19,2,0,0.97,good,17.84,3325.2723,-11155.7647,362.2,1,1.0,-27.6,09,060212.801,105.57,109.48,5.00,414948
19.00,83.66,80.99,83.74,3.22,5.25,9.91,1.50,-3.07,-2.87,-9.78,23.75,67.32,10.90,4.75,152.93,96828.75,381.00,27.19,3,0,1.46,good,17.77,3325.2731,-11155.7666,363.5,1,1.0,-27.6,09,060214.801,106.06,108.50,5.00,416945
19.00,83.66,80.99,83.74,3.69,3.49,8.70,0.85,3.31,3.27,-12.97,24.87,67.71,11.74,4.48,153.27,96831.25,381.06,27.19,4,0,1.95,good,17.84,3325.2735,-11155.7689,364.1,1,1.0,-27.6,09,060216.801,105.57,110.46,5.00,418941
19.40,83.66,81.00,83.74,3.27,3.61,8.08,1.29,1.34,4.13,-0.68,24.72,64.51,12.71,3.58,153.70,96829.50,381.19,27.19,3,0,1.46,good,17.84,3325.2742,-11155.7713,364.3,1,1.1,-27.6,08,060218.801,105.57,108.50,5.00,420929
19.40,83.66,81.00,83.74,1.19,4.00,8.77,-3.80,-0.01,-3.16,-0.37,23.83,61.29,13.11,3.37,153.40,96830.00,381.19,27.19,7,2,2.20,good,17.81,3325.2745,-11155.7733,364.3,1,1.0,-27.6,09,060220.801,105.57,109.97,5.00,422938
20.00,83.66,81.03,83.68,0.63,4.15,8.40,-2.38,-3.66,-3.39,-4.33,27.94,63.71,13.79,3.21,152.95,96830.50,381.06,27.19,3,0,1.46,good,17.81,3325.2747,-11155.7751,364.2,1,1.0,-27.6,09,060222.801,105.57,109.48,5.00,424933
20.20,83.48,80.91,83.68,1.79,5.18,10.12,1.28,1.42,-3.04,5.94,24.81,60.26,14.71,2.93,152.69,96830.25,380.94,27.25,2,0,0.97,good,17.81,3325.2747,-11155.7768,364.3,1,1.0,-27.6,09,060224.801,106.06,106.55,5.00,426929
20.20,83.48,80.91,83.74,3.70,5.21,10.20,-2.41,1.28,-0.56,-9.43,16.52,65.78,14.91,2.52,152.68,96828.75,380.94,27.25,2,0,0.97,good,17.81,3325.2742,-11155.7787,365.1,1,1.0,-27.6,09,060226.801,105.57,106.55,5.00,428937
20.20,83.66,81.04,83.68,4.27,4.46,11.02,-1.58,1.81,3.90,-10.56,14.65,67.04,14.82,2.12,153.11,96834.75,380.81,27.25,2,0,0.97,good,17.81,3325.2742,-11155.7803,365.8,1,1.0,-27.6,09,060228.801,105.57,107.04,5.00,430923
20.20,83.66,81.04,83.68,2.69,7.03,8.09,-1.50,-3.77,-4.55,-4.37,11.62,62.12,15.57,1.38,152.61,96832.25,380.88,27.25,2,0,0.97,good,17.77,3325.2751,-11155.7821,366.6,1,1.1,-27.6,08,060230.801,105.57,107.04,5.00,432912
19.20,83.66,81.00,83.74,3.55,5.66,6.58,-1.00,-7.21,-2.95,-11.76,10.13,66.25,16.01,0.52,152.16,96830.50,381.13,27.25,2,0,0.97,good,17.81,3325.2750,-11155.7840,368.3,1,1.0,-27.6,09,060232.801,106.06,111.44,5.00,434939
18.70,83.66,80.98,83.74,0.58,5.17,10.94,2.85,0.35,-1.02,1.80,17.01,60.58,16.69,0.41,152.08,96835.50,380.94,27.25,2,0,0.97,good,17.77,3325.2746,-11155.7853,369.6,1,1.0,-27.6,09,060234.801,105.57,106.55,5.00,436928
18.70,83.66,80.98,83.74,-0.21,-3.00,8.85,11.51,-0.90,10.18,18.80,40.01,68.72,16.38,0.23,152.93,96832.00,381.13,27.25,2,0,0.97,good,17.81,3325.2741,-11155.7866,369.9,1,1.1,-27.6,08,060236.801,106.06,105.57,5.00,438914
18.40,83.66,80.96,83.74,-0.56,0.71,10.53,0.45,0.81,3.20,-3.41,26.32,63.39,15.96,0.78,153.22,96833.00,380.94,27.25,2,0,0.97,good,17.84,3325.2742,-11155.7881,369.4,1,1.0,-27.6,09,060238.801,105.57,108.99,5.00,440934
18.20,83.66,80.96,83.74,-1.98,1.29,9.53,-1.99,0.57,-1.27,-1.30,19.23,60.04,15.41,1.51,153.10,96831.00,380.94,27.25,3,0,1.46,good,17.81,3325.2743,-11155.7896,368.5,1,1.0,-27.6,09,060240.801,106.06,110.95,5.00,442927
18.20,83.66,80.96,83.81,-1.52,3.30,9.76,1.66,-0.13,1.27,4.83,19.38,60.05,15.72,1.80,153.23,96833.50,380.88,27.25,6,1,2.43,good,17.77,3325.2742,-11155.7904,368.0,1,1.1,-27.6,08,060241.801,106.55,106.06,5.00,443902
18.20,83.66,80.96,83.74,-1.87,1.74,11.92,-0.29,0.76,-0.27,8.96,23.96,61.02,15.35,2.25,153.20,96836.00,380.63,27.31,7,1,2.95,good,17.81,3325.2739,-11155.7927,366.1,1,1.0,-27.6,09,060244.801,105.57,109.48,5.00,446925
18.10,83.66,80.95,83.81,0.74,2.68,8.20,3.55,-0.12,6.46,-4.15,20.24,63.43,15.92,1.89,153.82,96830.75,380.63,27.31,4,0,1.95,good,17.81,3325.2738,-11155.7935,365.6,1,1.0,-27.6,09,060245.801,105.57,108.99,5.00,447916
18.10,83.66,80.95,83.74,1.19,2.15,8.66,-1.55,-0.75,-0.74,-3.76,18.68,64.96,15.64,1.49,153.73,96834.50,380.94,27.31,7,1,2.95,good,17.77,3325.2735,-11155.7951,365.0,1,1.0,-27.6,09,060247.801,106.06,111.93,5.00,449915
18.20,83.66,80.96,83.81,0.44,0.70,6.64,0.36,-7.02,0.30,1.43,17.45,60.92,15.15,0.53,153.56,96836.00,380.63,27.31,5,0,2.43,good,17.84,3325.2735,-11155.7970,364.4,1,1.0,-27.6,09,060249.801,106.06,106.55,5.00,451914
18.20,83.84,81.09,83.87,-1.18,3.54,7.33,-0.60,-1.19,-5.23,5.09,17.55,59.73,15.55,0.92,153.04,96835.75,380.50,27.31,4,0,1.95,good,17.77,3325.2738,-11155.7988,364.2,1,1.0,-27.6,09,060251.801,105.57,110.46,5.00,453910
18.20,83.84,81.09,83.87,-0.83,2.86,5.84,4.20,3.65,2.14,0.48,13.05,58.17,16.28,1.60,153.36,96836.25,380.63,27.31,3,0,1.46,good,17.84,3325.2741,-11155.8010,364.3,1,1.1,-27.6,08,060253.801,106.06,109.48,5.00,455894
18.40,83.84,81.10,83.87,-0.07,3.46,6.87,3.07,1.79,3.72,-0.91,11.25,60.69,16.70,1.84,153.80,96835.75,380.38,27.31,3,0,1.46,good,17.84,3325.2758,-11155.8050,365.4,1,1.0,-27.6,09,060256.801,106.06,111.44,5.00,458919
18.40,83.84,81.10,83.81,-3.63,5.99,10.48,-2.59,-1.94,2.33,2.17,-1.72,62.38,15.84,2.93,154.22,96834.50,380.56,27.31,2,0,0.97,good,17.81,3325.2762,-11155.8060,366.0,1,1.0,-27.6,09,060257.801,106.06,111.44,5.00,459899
18.40,83.84,81.10,83.87,-0.30,8.53,5.69,-4.11,0.24,-1.83,4.75,0.35,63.22,16.20,3.36,154.34,96838.50,380.31,27.31,2,0,0.97,good,17.92,3325.2764,-11155.8079,366.6,1,1.0,-27.6,09,060259.801,106.06,110.46,5.00,461902
18.30,83.84,81.09,83.87,-0.94,4.86,8.51,-2.67,3.13,-3.09,0.66,8.59,66.18,15.95,4.09,154.21,96837.50,380.44,27.31,4,1,1.38,good,17.81,3325.2763,-11155.8092,366.6,1,1.0,-27.6,09,060301.801,105.57,109.48,5.00,463899
18.30,83.84,81.09,83.87,3.46,3.79,8.44,-4.15,6.36,1.42,-3.25,10.41,67.47,15.42,3.74,154.56,96838.50,380.31,27.37,4,1,1.38,good,17.81,3325.2759,-11155.8113,366.6,1,1.0,-27.6,09,060303.801,106.55,106.55,5.00,465900
18.10,83.84,81.09,83.93,3.42,3.41,9.50,-1.20,1.57,1.46,-9.83,6.84,70.94,14.81,3.43,154.78,96841.25,380.50,27.37,2,0,0.97,good,17.84,3325.2747,-11155.8147,367.9,1,1.0,-27.6,09,060305.801,106.06,108.50,5.00,467899
18.10,83.84,81.09,83.87,-0.48,3.09,9.12,-2.38,-1.91,-3.19,-6.33,8.62,64.99,14.23,3.74,154.43,96839.25,380.38,27.37,2,0,0.97,good,17.84,3325.2750,-11155.8153,368.6,1,1.0,-27.6,09,060307.801,106.06,110.95,5.00,469888
18.20,83.84,81.09,83.93,0.64,2.14,8.07,-2.88,4.02,-3.51,-5.96,13.01,67.16,13.72,4.03,154.19,96837.00,380.38,27.37,2,0,0.97,good,17.81,3325.2754,-11155.8170,369.7,1,1.0,-27.6,09,060309.801,106.55,108.02,5.00,471893
17.90,83.84,81.08,83.87,2.61,3.46,11.24,0.65,0.70,-1.91,-8.66,13.12,68.95,13.70,3.67,154.02,96839.25,380.38,27.37,2,0,0.97,good,17.84,3325.2757,-11155.8181,370.0,1,1.0,-27.6,09,060311.801,106.06,108.02,5.00,473883
17.90,83.84,81.08,83.81,3.26,3.82,12.80,0.48,-0.83,1.09,-13.88,10.48,74.29,13.43,3.43,154.10,96840.50,380.25,27.37,2,0,0.97,good,17.84,3325.2762,-11155.8194,370.1,1,1.0,-27.6,09,060313.801,107.04,107.04,5.00,475883
17.80,83.84,81.08,83.87,6.02,3.81,10.55,-0.31,-0.53,2.20,-13.88,14.45,71.48,13.43,2.53,154.29,96840.25,380.31,27.37,2,0,0.97,good,17.84,3325.2761,-11155.8208,370.1,1,1.0,-27.6,09,060315.801,106.06,108.02,5.00,477878
17.80,83.84,81.08,83.81,0.51,4.36,8.48,-3.13,2.45,-3.23,-9.63,13.85,66.61,13.58,3.10,154.05,96842.75,380.25,27.37,2,0,0.97,good,17.81,3325.2769,-11155.8219,369.7,1,1.0,-27.6,09,060317.801,106.55,111.44,5.00,479878
17.60,83.84,81.07,83.81,2.77,3.15,7.81,-1.76,-4.64,-2.13,-10.19,16.23,65.77,13.68,2.17,153.74,96841.00,380.25,27.37,3,0,1.46,good,17.84,3325.2772,-11155.8234,369.7,1,1.0,-27.6,09,060319.801,106.06,106.55,5.00,481879
17.60,83.84,81.07,83.81,1.97,2.49,7.21,2.62,0.83,3.05,-11.00,17.86,66.43,14.13,2.02,154.03,96842.25,380.31,27.37,3,0,1.46,good,17.81,3325.2771,-11155.8250,369.8,1,1.0,-27.6,09,060321.801,106.06,108.02,5.00,483881
17.40,83.66,80.93,83.74,0.82,1.10,6.88,1.02,2.56,2.66,-8.93,18.83,65.88,13.96,2.29,154.32,96841.25,380.25,27.37,2,0,0.97,good,17.81,3325.2767,-11155.8257,369.8,1,1.0,-27.6,09,060322.801,106.06,108.02,5.00,484874
17.40,83.66,80.93,83.81,3.01,2.96,11.27,-0.09,1.16,1.34,-9.28,19.18,66.91,13.97,2.06,154.46,96842.50,380.13,27.37,2,0,0.97,good,17.81,3325.2767,-11155.8272,369.7,1,1.0,-27.6,09,060324.801,106.06,107.04,5.00,486881
17.80,83.66,80.94,83.74,4.54,4.01,11.74,2.20,-1.16,2.77,-10.43,19.95,71.04,14.38,1.37,154.68,96842.25,380.00,27.37,2,0,0.97,good,17.81,3325.2771,-11155.8286,369.4,1,1.0,-27.6,09,060326.801,106.06,110.95,5.00,488878
17.80,83.66,80.94,83.81,1.19,1.41,7.48,-1.05,0.10,-1.16,-11.97,17.80,70.34,13.91,1.65,154.54,96841.25,380.13,27.37,2,0,0.97,good,17.84,3325.2767,-11155.8299,368.9,1,1.0,-27.6,09,060328.801,106.06,108.99,5.00,490877
17.80,83.66,80.94,83.74,2.62,3.46,9.78,0.48,1.02,-0.06,-6.67,18.51,65.94,14.22,1.36,154.55,96843.75,380.00,27.37,2,0,0.97,good,17.81,3325.2769,-11155.8310,368.4,1,1.0,-27.6,09,060330.801,106.06,107.04,5.00,492877
17.90,83.66,80.95,83.74,1.91,2.77,11.32,0.77,0.70,-1.23,-2.70,24.60,62.50,14.48,1.30,154.41,96846.00,379.63,27.44,2,0,0.97,good,17.84,3325.2771,-11155.8322,368.0,1,1.0,-27.6,09,060332.801,107.53,110.46,5.00,494873
17.80,83.66,80.94,83.74,1.07,1.56,6.35,1.80,2.08,2.32,-10.24,18.33,66.67,14.52,1.59,154.66,96844.75,380.06,27.37,3,0,1.46,good,17.77,3325.2775,-11155.8337,367.5,1,1.0,-27.6,09,060334.801,107.53,110.95,5.00,496866
17.80,83.66,80.94,83.81,1.41,1.28,7.53,-1.11,-0.89,-1.95,-11.99,17.53,69.64,13.98,1.70,154.42,96844.00,380.00,27.44,4,1,1.38,good,17.81,3325.2779,-11155.8353,367.2,1,1.0,-27.6,09,060336.801,106.55,107.53,5.00,498866
17.90,83.66,80.95,83.74,1.59,1.23,7.43,-0.17,-1.96,-0.82,-10.50,19.52,67.00,13.69,1.51,154.25,96845.75,380.06,27.44,5,1,1.91,good,17.81,3325.2780,-11155.8369,367.3,1,1.0,-27.6,09,060336.801,106.06,108.99,5.00,500866
17.90,83.66,80.95,83.74,2.41,2.23,8.93,1.28,1.30,0.50,-8.55,18.10,66.36,13.79,1.37,154.31,96847.00,380.00,27.44,2,0,0.97,good,17.84,3325.2785,-11155.8391,367.7,1,1.0,-27.6,09,060338.801,106.55,110.95,5.00,502862
18.00,83.66,80.95,83.87,1.69,4.84,10.14,3.01,1.40,-2.16,-10.27,7.96,66.76,14.11,1.87,154.16,96843.50,379.56,27.44,3,1,0.82,good,17.77,3325.2788,-11155.8405,367.8,1,1.0,-27.6,09,060340.801,106.55,108.99,5.00,504863
18.00,83.66,80.95,83.81,0.39,3.17,12.08,-2.42,-0.81,-1.58,-8.55,2.59,66.39,13.04,2.48,154.05,96843.75,380.25,27.44,4,1,1.38,good,17.81,3325.2783,-11155.8418,367.3,1,1.0,-27.6,09,060342.801,106.55,109.48,5.00,506868
17.90,83.84,81.08,83.87,-0.77,2.88,13.83,1.84,-0.59,-0.59,-5.96,0.18,65.42,12.26,3.17,154.05,96844.25,380.06,27.44,5,1,1.91,good,17.81,3325.2781,-11155.8431,366.3,1,1.0,-27.6,09,060344.801,106.55,108.02,5.00,508861
17.90,83.84,81.08,83.93,-0.88,6.55,8.65,-0.33,2.62,0.95,-4.49,6.74,64.12,12.99,3.81,154.27,96844.00,379.81,27.44,4,1,1.38,good,17.88,3325.2784,-11155.8449,365.3,1,1.0,-27.6,09,060346.801,106.55,112.90,5.00,510863
17.60,83.84,81.07,83.87,-0.02,6.96,9.63,0.60,0.05,-3.80,-6.14,9.17,64.76,13.79,4.05,153.97,96849.75,379.56,27.44,3,1,0.82,good,17.81,3325.2785,-11155.8473,364.6,1,1.0,-27.6,09,060348.801,106.06,107.53,5.00,512861
17.30,84.02,81.19,83.93,1.65,3.54,9.78,0.80,2.14,0.63,-7.38,13.08,66.78,13.97,3.85,154.09,96846.50,379.94,27.44,2,0,0.97,good,17.88,3325.2789,-11155.8491,364.4,1,1.0,-27.6,09,060350.801,108.02,108.50,5.00,514858
17.30,84.02,81.19,83.87,2.71,3.71,10.28,-0.49,-1.70,-0.57,-10.11,10.52,68.71,13.79,3.35,154.01,96845.50,379.94,27.44,2,0,0.97,good,17.77,3325.2792,-11155.8508,364.7,1,1.0,-27.6,09,060352.801,106.55,108.99,5.00,516858
17.10,84.02,81.19,83.93,3.13,3.24,10.65,0.86,0.34,1.40,-8.20,14.34,67.33,13.86,2.76,154.15,96845.50,379.75,27.50,2,0,0.97,good,17.81,3325.2795,-11155.8529,365.3,1,1.0,-27.6,09,060354.801,106.55,111.44,5.00,518853
17.10,84.02,81.19,83.99,1.90,4.57,11.67,0.57,0.74,-1.17,1.56,17.63,62.77,14.28,2.29,154.07,96844.50,379.63,27.50,2,0,0.97,good,17.77,3325.2808,-11155.8556,366.9,1,1.0,-27.6,09,060356.801,106.55,111.93,5.00,520848
17.30,84.20,81.33,84.05,3.06,7.07,9.47,-1.13,-3.62,-8.41,-3.48,18.78,64.73,15.25,1.46,153.20,96843.25,379.88,27.50,2,0,0.97,good,17.84,3325.2809,-11155.8568,368.0,1,1.0,-27.6,09,060358.801,106.55,107.04,5.00,522848
17.10,84.20,81.32,84.05,2.50,3.75,10.31,1.56,-0.61,-0.08,-1.36,19.22,61.88,15.69,0.78,153.18,96846.75,379.81,27.50,2,0,0.97,good,17.77,3325.2813,-11155.8577,368.3,1,1.0,-27.6,09,060359.801,106.55,112.41,5.00,523842
17.10,84.20,81.32,84.11,4.82,4.81,8.83,-1.38,3.35,3.34,-4.14,19.87,64.01,16.14,0.01,153.59,96845.50,379.56,27.50,2,0,0.97,good,17.81,3325.2817,-11155.8591,368.9,1,1.0,-27.6,09,060401.801,106.55,111.44,5.00,525843
17.00,84.20,81.32,84.11,2.32,2.42,8.41,0.08,3.25,4.60,-0.19,22.36,61.88,16.24,-0.36,154.11,96846.75,380.00,27.50,2,0,0.97,good,17.84,3325.2850,-11155.8615,370.0,1,1.0,-27.6,09,060403.801,106.55,110.46,5.00,527843
17.00,84.20,81.32,84.11,1.77,2.46,8.49,-1.80,-3.73,-2.48,8.83,22.59,59.99,16.09,-1.18,153.76,96846.25,379.50,27.50,2,0,0.97,good,17.81,3325.2846,-11155.8621,370.4,1,1.0,-27.6,09,060405.801,106.55,113.88,5.00,529833
16.90,84.56,81.58,84.11,2.30,3.57,8.45,-1.27,-3.52,-2.23,9.67,21.69,60.25,16.31,-2.09,153.44,96844.50,379.94,27.50,2,0,0.97,good,17.84,3325.2840,-11155.8627,370.2,1,1.0,-27.6,09,060407.801,107.04,108.50,5.00,531828
16.90,84.56,81.58,84.17,4.35,4.42,11.71,0.55,1.34,-1.91,13.97,21.71,58.49,16.52,-2.77,153.30,96848.25,379.75,27.56,6,1,2.43,good,17.81,3325.2845,-11155.8640,369.3,1,1.0,-27.6,09,060409.801,106.55,108.50,5.00,533845
16.80,84.56,81.58,84.17,1.07,2.01,6.89,1.73,2.35,2.52,12.11,22.31,59.14,16.67,-2.90,153.61,96845.25,379.50,27.56,10,2,3.82,good,17.81,3325.2841,-11155.8649,368.4,1,1.0,-27.6,09,060411.801,107.04,108.99,5.00,535841
16.90,84.56,81.58,84.29,1.26,1.03,9.80,1.38,-1.34,-1.19,12.91,26.97,64.20,16.37,-3.17,153.46,96846.75,380.06,27.56,3,1,0.82,good,17.81,3325.2827,-11155.8652,367.6,1,1.0,-27.6,09,060413.801,106.55,112.41,5.00,537836
16.90,84.56,81.58,84.23,2.17,1.79,11.69,2.58,1.43,6.02,24.42,22.11,62.99,15.99,-3.63,154.19,96838.75,380.38,27.56,5,2,1.06,good,17.84,3325.2807,-11155.8652,367.2,1,1.0,-27.6,09,060415.801,106.55,109.48,5.00,539833
16.80,84.56,81.58,84.29,2.50,2.02,8.19,-0.41,0.72,-0.71,21.50,19.59,59.48,15.62,-4.25,154.22,96841.25,380.38,27.56,7,2,2.20,good,17.84,3325.2781,-11155.8652,367.3,1,1.0,-27.6,09,060417.801,106.55,113.39,5.00,541822
16.80,84.56,81.58,84.29,1.27,4.38,9.47,-0.34,0.19,-2.69,25.78,11.50,61.96,15.46,-4.35,154.17,96842.75,379.81,27.56,7,2,2.20,good,17.81,3325.2775,-11155.8656,367.0,1,1.0,-27.6,09,060419.801,108.02,113.39,5.00,543817
16.60,84.56,81.58,84.23,2.18,2.11,7.60,0.03,-3.20,-2.14,19.95,16.67,64.33,15.18,-5.22,153.97,96846.25,379.69,27.56,4,1,1.38,good,17.81,3325.2773,-11155.8655,366.6,1,1.0,-27.6,09,060421.801,107.04,109.48,5.00,545816
16.60,84.92,81.85,84.29,5.93,-1.01,5.15,2.02,1.95,-4.38,6.80,32.27,72.23,14.83,-6.49,153.59,96846.25,379.75,27.62,4,1,1.38,good,17.81,3325.2773,-11155.8652,366.6,1,1.0,-27.6,09,060423.801,107.04,109.48,5.00,547825
16.50,84.92,81.85,84.29,2.02,1.09,13.91,0.21,5.66,-1.61,21.30,28.73,63.21,14.48,-5.90,153.58,96844.00,379.75,27.62,3,1,0.82,good,17.81,3325.2774,-11155.8649,366.6,1,1.1,-27.6,08,060425.801,107.04,110.46,5.00,549796
16.50,84.92,81.85,84.29,3.27,0.21,13.15,1.08,4.22,1.86,18.76,17.61,70.76,13.69,-5.99,153.99,96847.75,379.94,27.62,105,28,34.70,good,17.92,3325.2775,-11155.8645,367.0,1,1.1,-27.6,08,060427.801,107.53,110.95,5.00,551789
16.70,84.92,81.85,84.35,-5.06,1.83,12.10,-2.10,3.30,2.83,27.43,16.94,77.20,12.87,-4.43,154.47,96843.75,380.00,27.62,180,49,58.67,good,17.84,3325.2775,-11155.8645,367.1,1,1.2,-27.6,06,060429.801,107.04,108.50,5.00,553776
16.70,84.92,81.85,84.35,-4.06,-0.15,12.55,2.25,-2.30,-4.59,26.88,22.93,84.29,12.33,-3.52,154.07,96846.00,379.81,27.62,43,15,11.15,good,17.81,3325.2775,-11155.8645,367.1,1,2.1,-27.6,05,060431.801,107.04,110.95,5.00,555766
16.90,84.92,81.86,84.35,-2.49,-0.34,8.96,-0.27,-0.01,-0.77,28.69,26.10,83.50,11.52,-2.61,154.06,96845.00,380.13,27.62,3,1,0.82,good,17.81,3325.2775,-11155.8645,367.2,1,2.0,-27.6,06,060433.801,107.53,109.97,5.00,557776
17.20,84.74,81.73,84.41,-2.83,0.92,9.07,0.76,-0.33,-1.45,27.96,28.05,77.92,11.34,-1.64,153.92,96843.25,379.75,27.69,6,1,2.43,good,17.81,3325.2775,-11155.8645,367.2,1,1.1,-27.6,08,060435.801,107.04,113.39,5.00,559785
17.30,84.92,81.87,84.35,-2.52,2.63,9.56,-2.46,1.97,7.49,43.38,5.73,91.73,10.47,-0.87,155.05,96845.50,379.81,27.69,8,2,2.75,good,17.88,3325.2775,-11155.8645,367.2,1,1.1,-27.6,08,060437.801,107.04,109.48,5.00,561776
17.30,84.92,81.87,84.41,-2.83,1.77,9.32,2.77,-1.18,-8.31,40.20,15.52,86.26,10.32,-0.07,154.42,96843.00,380.06,27.69,4,1,1.38,good,17.84,3325.2775,-11155.8645,367.2,1,1.1,-27.6,08,060439.801,107.04,111.93,5.00,563777
17.30,84.74,81.73,84.41,-1.81,1.57,9.64,-1.26,1.21,0.36,22.55,26.27,77.12,10.17,0.58,154.46,96843.00,380.06,27.69,3,0,1.46,good,17.81,3325.2775,-11155.8645,367.2,1,1.2,-27.6,07,060441.801,107.04,113.39,5.00,565773
17.30,84.74,81.73,84.48,-2.08,1.33,9.50,0.07,0.10,-0.39,26.19,28.27,78.92,10.09,1.19,154.41,96842.00,379.94,27.69,3,1,0.82,good,17.81,3325.2775,-11155.8645,367.2,1,1.0,-27.6,09,060443.801,107.04,108.50,5.00,567783
